stop_id,stop_code,stop_name,stop_lat,stop_lon,stop_url,location_type,parent_station,wheelchair_boarding,level_id,platform_code
"1","1","Sunshine Station/City Pl ","-37.78774462","144.83197021","https://transport.vic.gov.au/stop/4641/?utm_source=open_data_click_stop&utm_medium=open_data_stop_click&utm_campaign=open_data_click","","","0","",""
"10121","10121","Dorset Rd/Maroondah Hwy","-37.77136388","145.29475694","https://transport.vic.gov.au/stop/14118/?utm_source=open_data_click_stop&utm_medium=open_data_stop_click&utm_campaign=open_data_click","","","0","Level 0",""
"10187","10187","Exeter Rd/Maroondah Hwy","-37.77044578","145.29545922","https://transport.vic.gov.au/stop/4348/?utm_source=open_data_click_stop&utm_medium=open_data_stop_click&utm_campaign=open_data_click","","","0","Level 0",""
"10545","10545","Yendon Rd/Harbours Rd","-37.63659972","143.97231415","https://transport.vic.gov.au/stop/4225/?utm_source=open_data_click_stop&utm_medium=open_data_stop_click&utm_campaign=open_data_click","","","0","Level 0",""
"12451","12451","Yendon Rd/Harbours Rd","-37.63649258","143.97235249","https://transport.vic.gov.au/stop/4225/?utm_source=open_data_click_stop&utm_medium=open_data_stop_click&utm_campaign=open_data_click","","","0","Level 0",""
"13761","13761","Hudson Park/Sydney St","-37.29495217","144.95170761","https://transport.vic.gov.au/stop/4306/?utm_source=open_data_click_stop&utm_medium=open_data_stop_click&utm_campaign=open_data_click","","","0","Level 0",""
"13762","13762","Hudson Park/Sydney St","-37.29570688","144.95209325","https://transport.vic.gov.au/stop/4306/?utm_source=open_data_click_stop&utm_medium=open_data_stop_click&utm_campaign=open_data_click","","","0","Level 0",""
"13763","13763","High St/Main Rd","-37.27811812","144.73660672","https://transport.vic.gov.au/stop/4331/?utm_source=open_data_click_stop&utm_medium=open_data_stop_click&utm_campaign=open_data_click","","","0","Level 0",""
"13764","13764","High St/Main Rd","-37.27804994","144.73681176","https://transport.vic.gov.au/stop/4331/?utm_source=open_data_click_stop&utm_medium=open_data_stop_click&utm_campaign=open_data_click","","","0","Level 0",""
"13765","13765","Romsey Community Hub/Main St","-37.35008997","144.74281161","https://transport.vic.gov.au/stop/4338/?utm_source=open_data_click_stop&utm_medium=open_data_stop_click&utm_campaign=open_data_click","","","0","Level 0",""
"13766","13766","Romsey Community Hub/Main St","-37.35012130","144.74303644","https://transport.vic.gov.au/stop/4338/?utm_source=open_data_click_stop&utm_medium=open_data_stop_click&utm_campaign=open_data_click","","","0","Level 0",""
"13767","13767","Power St/High St","-37.12183397","144.85812800","https://transport.vic.gov.au/stop/4480/?utm_source=open_data_click_stop&utm_medium=open_data_stop_click&utm_campaign=open_data_click","","","0","Level 0",""
"13768","13768","Power St/High St","-37.12173753","144.85827703","https://transport.vic.gov.au/stop/4480/?utm_source=open_data_click_stop&utm_medium=open_data_stop_click&utm_campaign=open_data_click","","","0","Level 0",""
"13769","13769","General Store/Northern Hwy","-37.04395689","144.79860486","https://transport.vic.gov.au/stop/4481/?utm_source=open_data_click_stop&utm_medium=open_data_stop_click&utm_campaign=open_data_click","","","0","Level 0",""
"13770","13770","General Store/Northern Hwy","-37.04444076","144.79893942","https://transport.vic.gov.au/stop/4481/?utm_source=open_data_click_stop&utm_medium=open_data_stop_click&utm_campaign=open_data_click","","","0","Level 0",""
"14929","14929","Forest St/Warrenheip St","-37.64887563","143.88431076","https://transport.vic.gov.au/stop/4048/?utm_source=open_data_click_stop&utm_medium=open_data_stop_click&utm_campaign=open_data_click","","","0","Level 0",""
"15096","15096","Jennings St/Northern Hwy","-36.92740598","144.71185196","https://transport.vic.gov.au/stop/4482/?utm_source=open_data_click_stop&utm_medium=open_data_stop_click&utm_campaign=open_data_click","","","0","Level 0",""
"15097","15097","Jennings St/Northern Hwy","-36.92746867","144.71229911","https://transport.vic.gov.au/stop/4482/?utm_source=open_data_click_stop&utm_medium=open_data_stop_click&utm_campaign=open_data_click","","","0","Level 0",""
"15098","15098","Axedale Rd/Northern Hwy","-36.72088575","144.68276330","https://transport.vic.gov.au/stop/4483/?utm_source=open_data_click_stop&utm_medium=open_data_stop_click&utm_campaign=open_data_click","","","0","Level 0",""
"15099","15099","Axedale Rd/Northern Hwy","-36.72081587","144.68287735","https://transport.vic.gov.au/stop/4483/?utm_source=open_data_click_stop&utm_medium=open_data_stop_click&utm_campaign=open_data_click","","","0","Level 0",""
"15100","15100","Bendigo-Murchison Rd/Northern Hwy","-36.59909812","144.65296846","https://transport.vic.gov.au/stop/4484/?utm_source=open_data_click_stop&utm_medium=open_data_stop_click&utm_campaign=open_data_click","","","0","Level 0",""
"15101","15101","Bendigo-Murchison Rd/Northern Hwy","-36.59910889","144.65305755","https://transport.vic.gov.au/stop/4484/?utm_source=open_data_click_stop&utm_medium=open_data_stop_click&utm_campaign=open_data_click","","","0","Level 0",""
"15102","15102","Elmore Station/Northern Hwy ","-36.49531116","144.60789368","https://transport.vic.gov.au/stop/4650/?utm_source=open_data_click_stop&utm_medium=open_data_stop_click&utm_campaign=open_data_click","","","0","",""
"15103","15103","Cardwell St/Northern Hwy ","-36.49535167","144.60811569","https://transport.vic.gov.au/stop/4651/?utm_source=open_data_click_stop&utm_medium=open_data_stop_click&utm_campaign=open_data_click","","","0","",""
"15105","15105","Rochester Station/Northern Hwy ","-36.36227106","144.69871741","https://transport.vic.gov.au/stop/4652/?utm_source=open_data_click_stop&utm_medium=open_data_stop_click&utm_campaign=open_data_click","","","0","",""
"15109","15109","Murray River Council/Cobb Hwy","-36.11428466","144.75611191","https://transport.vic.gov.au/stop/4307/?utm_source=open_data_click_stop&utm_medium=open_data_stop_click&utm_campaign=open_data_click","","","0","Level 0",""
"15110","15110","Caltex Service Station/Cobb Hwy","-35.81288724","144.90271810","https://transport.vic.gov.au/stop/4323/?utm_source=open_data_click_stop&utm_medium=open_data_stop_click&utm_campaign=open_data_click","","","0","Level 0",""
"15111","15111","344 Whitelock St","-35.52873121","144.96150876","https://transport.vic.gov.au/stop/4329/?utm_source=open_data_click_stop&utm_medium=open_data_stop_click&utm_campaign=open_data_click","","","0","Level 0",""
"15112","15112","Border Service Station/Murray St","-35.62990066","144.12592283","https://transport.vic.gov.au/stop/4337/?utm_source=open_data_click_stop&utm_medium=open_data_stop_click&utm_campaign=open_data_click","","","0","Level 0",""
"15113","15113","Thompson St/Main St","-35.64357276","144.13119650","https://transport.vic.gov.au/stop/4336/?utm_source=open_data_click_stop&utm_medium=open_data_stop_click&utm_campaign=open_data_click","","","0","Level 0",""
"15114","15114","King Albert Ave/Leitchville Rd","-35.90363714","144.30111531","https://transport.vic.gov.au/stop/4332/?utm_source=open_data_click_stop&utm_medium=open_data_stop_click&utm_campaign=open_data_click","","","0","Level 0",""
"15115","15115","Newsagent/Murray Valley Hwy","-35.95628939","144.36879683","https://transport.vic.gov.au/stop/4291/?utm_source=open_data_click_stop&utm_medium=open_data_stop_click&utm_campaign=open_data_click","","","0","Level 0",""
"15116","15116","Newsagent/Murray Valley Hwy","-35.95598292","144.36879592","https://transport.vic.gov.au/stop/4291/?utm_source=open_data_click_stop&utm_medium=open_data_stop_click&utm_campaign=open_data_click","","","0","Level 0",""
"15117","15117","General Store/Murray Valley Hwy","-36.02893281","144.51656586","https://transport.vic.gov.au/stop/4334/?utm_source=open_data_click_stop&utm_medium=open_data_stop_click&utm_campaign=open_data_click","","","0","Level 0",""
"15118","15118","Singer Rd/Lockington Rd","-36.27173852","144.53578566","https://transport.vic.gov.au/stop/4335/?utm_source=open_data_click_stop&utm_medium=open_data_stop_click&utm_campaign=open_data_click","","","0","Level 0",""
"15119","15119","Singer Rd/Lockington Rd","-36.27167616","144.53582101","https://transport.vic.gov.au/stop/4335/?utm_source=open_data_click_stop&utm_medium=open_data_stop_click&utm_campaign=open_data_click","","","0","Level 0",""
"15120","15120","Mangan St/Henderson Rd","-36.24994736","144.94828359","https://transport.vic.gov.au/stop/4095/?utm_source=open_data_click_stop&utm_medium=open_data_stop_click&utm_campaign=open_data_click","","","0","Level 0",""
"15121","15121","Mangan St/Henderson Rd","-36.24980859","144.94807578","https://transport.vic.gov.au/stop/4095/?utm_source=open_data_click_stop&utm_medium=open_data_stop_click&utm_campaign=open_data_click","","","0","Level 0",""
"15122","15122","Transit Centre/Union St","-36.31438202","145.04752566","https://transport.vic.gov.au/stop/4293/?utm_source=open_data_click_stop&utm_medium=open_data_stop_click&utm_campaign=open_data_click","","","0","Level 0",""
"15123","15123","Mill St/McLennan St","-36.39407805","145.36133151","https://transport.vic.gov.au/stop/4110/?utm_source=open_data_click_stop&utm_medium=open_data_stop_click&utm_campaign=open_data_click","","","0","Level 0",""
"15124","15124","Mill St/McLennan St","-36.39457124","145.36114276","https://transport.vic.gov.au/stop/4110/?utm_source=open_data_click_stop&utm_medium=open_data_stop_click&utm_campaign=open_data_click","","","0","Level 0",""
"15126","15126","Shepparton Station/Purcell St ","-36.38381597","145.40634090","https://transport.vic.gov.au/stop/4653/?utm_source=open_data_click_stop&utm_medium=open_data_stop_click&utm_campaign=open_data_click","","","0","",""
"15127","15127","Fraser St/Wyndham St","-36.37983885","145.39946584","https://transport.vic.gov.au/stop/4462/?utm_source=open_data_click_stop&utm_medium=open_data_stop_click&utm_campaign=open_data_click","","","0","Level 0",""
"15128","15128","Fraser St/Wyndham St","-36.37950029","145.39976262","https://transport.vic.gov.au/stop/4462/?utm_source=open_data_click_stop&utm_medium=open_data_stop_click&utm_campaign=open_data_click","","","0","Level 0",""
"15130","15130","Barmah Hotel/Maloney St","-36.01725216","144.95780731","https://transport.vic.gov.au/stop/4343/?utm_source=open_data_click_stop&utm_medium=open_data_stop_click&utm_campaign=open_data_click","","","0","Level 0",""
"15131","15131","Milk Bar/Echuca - Nathalia Rd","-35.99893100","145.11096666","https://transport.vic.gov.au/stop/4544/?utm_source=open_data_click_stop&utm_medium=open_data_stop_click&utm_campaign=open_data_click","","","0","Level 0",""
"15137","15137","Milk Bar/Station St","-36.39707478","144.98085811","https://transport.vic.gov.au/stop/4341/?utm_source=open_data_click_stop&utm_medium=open_data_stop_click&utm_campaign=open_data_click","","","0","Level 0",""
"15139","15139","Birdwood Ave/Brundenell St","-36.44571461","144.98258788","https://transport.vic.gov.au/stop/4399/?utm_source=open_data_click_stop&utm_medium=open_data_stop_click&utm_campaign=open_data_click","","","0","Level 0",""
"15140","15140","Birdwood Ave/Brundenell St","-36.44595542","144.98243661","https://transport.vic.gov.au/stop/4399/?utm_source=open_data_click_stop&utm_medium=open_data_stop_click&utm_campaign=open_data_click","","","0","Level 0",""
"15143","15143","High St/Moora Rd","-36.58566655","145.01472681","https://transport.vic.gov.au/stop/4120/?utm_source=open_data_click_stop&utm_medium=open_data_stop_click&utm_campaign=open_data_click","","","0","Level 0",""
"15144","15144","School St/Moora Rd","-36.58546194","145.01488853","https://transport.vic.gov.au/stop/4342/?utm_source=open_data_click_stop&utm_medium=open_data_stop_click&utm_campaign=open_data_click","","","0","Level 0",""
"15145","15145","Murchison/Stevenson St","-36.61687032","145.21817666","https://transport.vic.gov.au/stop/4186/?utm_source=open_data_click_stop&utm_medium=open_data_stop_click&utm_campaign=open_data_click","","","0","Level 0",""
"15666","15666","Forest St/Warrenheip St","-37.64863951","143.88458126","https://transport.vic.gov.au/stop/4048/?utm_source=open_data_click_stop&utm_medium=open_data_stop_click&utm_campaign=open_data_click","","","0","Level 0",""
"16091","16091","Princes Fwy","-38.18627015","146.00201932","https://transport.vic.gov.au/stop/4359/?utm_source=open_data_click_stop&utm_medium=open_data_stop_click&utm_campaign=open_data_click","","","0","Level 0",""
"16096","16096","Yarragon Station/Princes Hwy ","-38.20334522","146.06286623","https://transport.vic.gov.au/stop/4654/?utm_source=open_data_click_stop&utm_medium=open_data_stop_click&utm_campaign=open_data_click","","","0","",""
"1613","1613","Webster St/Dunlop St","-38.08069184","142.80477363","https://transport.vic.gov.au/stop/4242/?utm_source=open_data_click_stop&utm_medium=open_data_stop_click&utm_campaign=open_data_click","","","0","Level 0",""
"16231","16231","Castlemaine Station/Kennedy St ","-37.06284590","144.21415854","https://transport.vic.gov.au/stop/4655/?utm_source=open_data_click_stop&utm_medium=open_data_stop_click&utm_campaign=open_data_click","","","0","",""
"16234","16234","Station St/High St ","-36.79507231","144.24451071","https://transport.vic.gov.au/stop/4656/?utm_source=open_data_click_stop&utm_medium=open_data_stop_click&utm_campaign=open_data_click","","","0","",""
"16235","16235","Kangaroo Flat Station/High St","-36.79508357","144.24421897","https://transport.vic.gov.au/stop/4389/?utm_source=open_data_click_stop&utm_medium=open_data_stop_click&utm_campaign=open_data_click","","","0","Level 0",""
"16238","16238","Bendigo Station/Railway Pl","-36.76592841","144.28210371","https://transport.vic.gov.au/stop/4071/?utm_source=open_data_click_stop&utm_medium=open_data_stop_click&utm_campaign=open_data_click","","","0","Level 0","Bay 1"
"16240","16240","Victoria St/High St","-36.71931768","144.25458681","https://transport.vic.gov.au/stop/4201/?utm_source=open_data_click_stop&utm_medium=open_data_stop_click&utm_campaign=open_data_click","","","0","Level 0",""
"16244","16244","Maiden Gully Rd/Calder Hwy","-36.74276965","144.20903904","https://transport.vic.gov.au/stop/4362/?utm_source=open_data_click_stop&utm_medium=open_data_stop_click&utm_campaign=open_data_click","","","0","Level 0",""
"16245","16245","Marong/Calder Hwy ","-36.73550392","144.13205842","https://transport.vic.gov.au/stop/4363/?utm_source=open_data_click_stop&utm_medium=open_data_stop_click&utm_campaign=open_data_click","","","0","Level 0",""
"16246","16246","Marong/Calder Hwy ","-36.73543206","144.13244177","https://transport.vic.gov.au/stop/4363/?utm_source=open_data_click_stop&utm_medium=open_data_stop_click&utm_campaign=open_data_click","","","0","Level 0",""
"16247","16247","Bridgewater/Calder Hwy ","-36.60167453","143.94134472","https://transport.vic.gov.au/stop/4364/?utm_source=open_data_click_stop&utm_medium=open_data_stop_click&utm_campaign=open_data_click","","","0","Level 0",""
"16248","16248","Bridgewater/Calder Hwy ","-36.60144718","143.94126430","https://transport.vic.gov.au/stop/4364/?utm_source=open_data_click_stop&utm_medium=open_data_stop_click&utm_campaign=open_data_click","","","0","Level 0",""
"16249","16249","Inglewood/Grant St ","-36.57545394","143.86930160","https://transport.vic.gov.au/stop/4365/?utm_source=open_data_click_stop&utm_medium=open_data_stop_click&utm_campaign=open_data_click","","","0","Level 0",""
"16250","16250","Inglewood/Grant St ","-36.57562799","143.86975263","https://transport.vic.gov.au/stop/4365/?utm_source=open_data_click_stop&utm_medium=open_data_stop_click&utm_campaign=open_data_click","","","0","Level 0",""
"16251","16251","Jacka Park/Chapel St","-36.41815228","143.61360463","https://transport.vic.gov.au/stop/4093/?utm_source=open_data_click_stop&utm_medium=open_data_stop_click&utm_campaign=open_data_click","","","0","Level 0",""
"16253","16253","Travellers Rest/John Curtin Dr","-36.26835214","143.35087668","https://transport.vic.gov.au/stop/4310/?utm_source=open_data_click_stop&utm_medium=open_data_stop_click&utm_campaign=open_data_click","","","0","Level 0",""
"16254","16254","Teddywaddy Rd/Calder Hwy","-36.19738169","143.34179386","https://transport.vic.gov.au/stop/4315/?utm_source=open_data_click_stop&utm_medium=open_data_stop_click&utm_campaign=open_data_click","","","0","Level 0",""
"16255","16255","Teddywaddy Rd/Calder Hwy","-36.19738169","143.34179386","https://transport.vic.gov.au/stop/4315/?utm_source=open_data_click_stop&utm_medium=open_data_stop_click&utm_campaign=open_data_click","","","0","Level 0",""
"16257","16257","Glenloth Rd/Calder Hwy","-36.13901268","143.28705910","https://transport.vic.gov.au/stop/4311/?utm_source=open_data_click_stop&utm_medium=open_data_stop_click&utm_campaign=open_data_click","","","0","Level 0",""
"16258","16258","Post Office/Calder Hwy","-36.07693596","143.22576548","https://transport.vic.gov.au/stop/4314/?utm_source=open_data_click_stop&utm_medium=open_data_stop_click&utm_campaign=open_data_click","","","0","Level 0",""
"16259","16259","Nullawil - Birchip Rd/Calder Hwy","-35.85312185","143.17711870","https://transport.vic.gov.au/stop/4313/?utm_source=open_data_click_stop&utm_medium=open_data_stop_click&utm_campaign=open_data_click","","","0","Level 0",""
"16260","16260","Nullawil - Birchip Rd/Calder Hwy","-35.85297103","143.17719235","https://transport.vic.gov.au/stop/4313/?utm_source=open_data_click_stop&utm_medium=open_data_stop_click&utm_campaign=open_data_click","","","0","Level 0",""
"16261","16261","Garage/Main St","-35.71798352","143.10810189","https://transport.vic.gov.au/stop/4312/?utm_source=open_data_click_stop&utm_medium=open_data_stop_click&utm_campaign=open_data_click","","","0","Level 0",""
"16262","16262","Caltex Service Station/Calder Hwy","-35.63711346","142.99615995","https://transport.vic.gov.au/stop/4308/?utm_source=open_data_click_stop&utm_medium=open_data_stop_click&utm_campaign=open_data_click","","","0","Level 0",""
"16263","16263","Caltex Service Station/Calder Hwy","-35.63711346","142.99615995","https://transport.vic.gov.au/stop/4308/?utm_source=open_data_click_stop&utm_medium=open_data_stop_click&utm_campaign=open_data_click","","","0","Level 0",""
"16264","16264","Newsagency/Best St","-35.50427039","142.84980561","https://transport.vic.gov.au/stop/4309/?utm_source=open_data_click_stop&utm_medium=open_data_stop_click&utm_campaign=open_data_click","","","0","Level 0",""
"16266","16266","McGregor's Garage/Donald - Swan Hill Rd","-35.67077283","143.37532870","https://transport.vic.gov.au/stop/4368/?utm_source=open_data_click_stop&utm_medium=open_data_stop_click&utm_campaign=open_data_click","","","0","Level 0",""
"16267","16267","Gear Ave/Warrenheip St","-37.62811844","143.87995583","https://transport.vic.gov.au/stop/4017/?utm_source=open_data_click_stop&utm_medium=open_data_stop_click&utm_campaign=open_data_click","","","0","Level 0",""
"16268","16268","Gear Ave/Warrenheip St","-37.62800593","143.88013047","https://transport.vic.gov.au/stop/4017/?utm_source=open_data_click_stop&utm_medium=open_data_stop_click&utm_campaign=open_data_click","","","0","Level 0",""
"16269","16269","Navigators Rd","-37.60837271","143.93542787","https://transport.vic.gov.au/stop/4035/?utm_source=open_data_click_stop&utm_medium=open_data_stop_click&utm_campaign=open_data_click","","","0","Level 0",""
"16270","16270","Navigators Rd","-37.60829288","143.93547645","https://transport.vic.gov.au/stop/4035/?utm_source=open_data_click_stop&utm_medium=open_data_stop_click&utm_campaign=open_data_click","","","0","Level 0",""
"16271","16271","Warrenheip Rd/Navigators Rd","-37.58485550","143.91742859","https://transport.vic.gov.au/stop/4224/?utm_source=open_data_click_stop&utm_medium=open_data_stop_click&utm_campaign=open_data_click","","","0","Level 0",""
"16272","16272","Warrenheip Rd/Navigators Rd","-37.58467401","143.91737947","https://transport.vic.gov.au/stop/4224/?utm_source=open_data_click_stop&utm_medium=open_data_stop_click&utm_campaign=open_data_click","","","0","Level 0",""
"16275","16275","North Melbourne Station/Railway Pl ","-37.80630984","144.94151017","https://transport.vic.gov.au/stop/4657/?utm_source=open_data_click_stop&utm_medium=open_data_stop_click&utm_campaign=open_data_click","","","0","",""
"16287","16287","Morwell Station/Princes Dr ","-38.23684998","146.39773465","https://transport.vic.gov.au/stop/4658/?utm_source=open_data_click_stop&utm_medium=open_data_stop_click&utm_campaign=open_data_click","","","0","",""
"16291","16291","Centre Valley Rd/Princes Dr","-38.23508871","146.42943430","https://transport.vic.gov.au/stop/4495/?utm_source=open_data_click_stop&utm_medium=open_data_stop_click&utm_campaign=open_data_click","","","0","Level 0",""
"16292","16292","Mid Valley Shopping Centre/Mid Valley Dr","-38.23684621","146.43130596","https://transport.vic.gov.au/stop/4377/?utm_source=open_data_click_stop&utm_medium=open_data_stop_click&utm_campaign=open_data_click","","","0","Level 0",""
"16295","16295","Traralgon Station/Princes St ","-38.19832035","146.53869655","https://transport.vic.gov.au/stop/4659/?utm_source=open_data_click_stop&utm_medium=open_data_stop_click&utm_campaign=open_data_click","","","0","Level 0",""
"16297","16297","Traralgon Plaza SC/Franklin St","-38.19442587","146.53842420","https://transport.vic.gov.au/stop/4498/?utm_source=open_data_click_stop&utm_medium=open_data_stop_click&utm_campaign=open_data_click","","","0","Level 0",""
"16298","16298","Latrobe St/Princes Hwy","-38.15099192","146.78468804","https://transport.vic.gov.au/stop/4304/?utm_source=open_data_click_stop&utm_medium=open_data_stop_click&utm_campaign=open_data_click","","","0","Level 0",""
"16299","16299","Latrobe St/Princes Hwy","-38.15138220","146.78618204","https://transport.vic.gov.au/stop/4304/?utm_source=open_data_click_stop&utm_medium=open_data_stop_click&utm_campaign=open_data_click","","","0","Level 0",""
"16301","16301","Gippsland Shopping Centre/Cunninghame St","-38.10722617","147.06351137","https://transport.vic.gov.au/stop/4074/?utm_source=open_data_click_stop&utm_medium=open_data_stop_click&utm_campaign=open_data_click","","","0","Level 0",""
"16302","16302","Sale Station/Pettit Dr ","-38.10322895","147.05469117","https://transport.vic.gov.au/stop/4660/?utm_source=open_data_click_stop&utm_medium=open_data_stop_click&utm_campaign=open_data_click","","","0","",""
"16304","16304","Memorial Park/Princes Hwy","-37.96509257","147.08003285","https://transport.vic.gov.au/stop/4501/?utm_source=open_data_click_stop&utm_medium=open_data_stop_click&utm_campaign=open_data_click","","","0","Level 0",""
"16305","16305","Post Office/Hobson St","-37.96629068","147.08092215","https://transport.vic.gov.au/stop/4199/?utm_source=open_data_click_stop&utm_medium=open_data_stop_click&utm_campaign=open_data_click","","","0","Level 0",""
"16307","16307","Lindenow Rd/Princes Hwy","-37.88101185","147.42178007","https://transport.vic.gov.au/stop/4250/?utm_source=open_data_click_stop&utm_medium=open_data_stop_click&utm_campaign=open_data_click","","","0","Level 0",""
"16308","16308","Lindenow Rd/Princes Hwy","-37.88127294","147.42186116","https://transport.vic.gov.au/stop/4250/?utm_source=open_data_click_stop&utm_medium=open_data_stop_click&utm_campaign=open_data_click","","","0","Level 0",""
"16309","16309","Bairnsdale Railway Station/Macleod St ","-37.82846015","147.62740701","https://transport.vic.gov.au/stop/4661/?utm_source=open_data_click_stop&utm_medium=open_data_stop_click&utm_campaign=open_data_click","","","0","","Bay 4"
"16313","16313","Bailey St/Princes Hwy","-37.82551387","147.63227944","https://transport.vic.gov.au/stop/4253/?utm_source=open_data_click_stop&utm_medium=open_data_stop_click&utm_campaign=open_data_click","","","0","Level 0",""
"16314","16314","Bailey St/Princes Hwy","-37.82612077","147.63171648","https://transport.vic.gov.au/stop/4253/?utm_source=open_data_click_stop&utm_medium=open_data_stop_click&utm_campaign=open_data_click","","","0","Level 0",""
"16316","16316","General Store/Princes Hwy","-37.81663636","147.73905799","https://transport.vic.gov.au/stop/4254/?utm_source=open_data_click_stop&utm_medium=open_data_stop_click&utm_campaign=open_data_click","","","0","Level 0",""
"16342","16342","Cranbourne Park SC/Lyall St","-38.10963750","145.28416025","https://transport.vic.gov.au/stop/4452/?utm_source=open_data_click_stop&utm_medium=open_data_stop_click&utm_campaign=open_data_click","","","0","Level 0","Bay 5"
"16386","16386","General Store/Princes Hwy","-37.82009600","147.83120341","https://transport.vic.gov.au/stop/4255/?utm_source=open_data_click_stop&utm_medium=open_data_stop_click&utm_campaign=open_data_click","","","0","Level 0",""
"16388","16388","General Store/Princes Hwy","-37.82199481","147.85676681","https://transport.vic.gov.au/stop/4256/?utm_source=open_data_click_stop&utm_medium=open_data_stop_click&utm_campaign=open_data_click","","","0","Level 0",""
"16390","16390","Hunters Lane/Princes Hwy","-37.86885400","147.95722253","https://transport.vic.gov.au/stop/4257/?utm_source=open_data_click_stop&utm_medium=open_data_stop_click&utm_campaign=open_data_click","","","0","Level 0",""
"16516","16516","Hunters Lane/Princes Hwy","-37.87000308","147.95778313","https://transport.vic.gov.au/stop/4257/?utm_source=open_data_click_stop&utm_medium=open_data_stop_click&utm_campaign=open_data_click","","","0","Level 0",""
"16554","16554","Lookout Rd/Princes Hwy","-37.87924371","147.96189395","https://transport.vic.gov.au/stop/4258/?utm_source=open_data_click_stop&utm_medium=open_data_stop_click&utm_campaign=open_data_click","","","0","Level 0",""
"16556","16556","Post Office/Princes Hwy","-37.88154412","147.98236928","https://transport.vic.gov.au/stop/4259/?utm_source=open_data_click_stop&utm_medium=open_data_stop_click&utm_campaign=open_data_click","","","0","Level 0",""
"16558","16558","Police Station/Roadknight St","-37.87758762","147.99523370","https://transport.vic.gov.au/stop/4072/?utm_source=open_data_click_stop&utm_medium=open_data_stop_click&utm_campaign=open_data_click","","","0","Level 0",""
"16559","16559","Quambatook Hotel/Guthrie St ","-35.85081227","143.52084070","https://transport.vic.gov.au/stop/4369/?utm_source=open_data_click_stop&utm_medium=open_data_stop_click&utm_campaign=open_data_click","","","0","Level 0",""
"16834","16834","Station St/High St","-38.10164082","145.28270510","https://transport.vic.gov.au/stop/4437/?utm_source=open_data_click_stop&utm_medium=open_data_stop_click&utm_campaign=open_data_click","","","0","Level 0",""
"169","169","RMIT Bundoora Campus West/Plenty Rd","-37.68070623","145.06899196","https://transport.vic.gov.au/stop/26954/?utm_source=open_data_click_stop&utm_medium=open_data_stop_click&utm_campaign=open_data_click","","","0","Level 0",""
"16934","16934","Barraport East Rd/Boort - Quambatook Rd","-36.00901481","143.66919494","https://transport.vic.gov.au/stop/4370/?utm_source=open_data_click_stop&utm_medium=open_data_stop_click&utm_campaign=open_data_click","","","0","Level 0",""
"16935","16935","Barraport East Rd/Boort - Quambatook Rd","-36.00917213","143.66934359","https://transport.vic.gov.au/stop/4370/?utm_source=open_data_click_stop&utm_medium=open_data_stop_click&utm_campaign=open_data_click","","","0","Level 0",""
"16936","16936","Boort/Godfrey St ","-36.11661086","143.72711229","https://transport.vic.gov.au/stop/4371/?utm_source=open_data_click_stop&utm_medium=open_data_stop_click&utm_campaign=open_data_click","","","0","Level 0",""
"16937","16937","Mysia/Boort-Wedderburn Rd ","-36.22994843","143.75534605","https://transport.vic.gov.au/stop/4372/?utm_source=open_data_click_stop&utm_medium=open_data_stop_click&utm_campaign=open_data_click","","","0","Level 0",""
"16938","16938","Boort/Godfrey St ","-36.11668317","143.72712039","https://transport.vic.gov.au/stop/4371/?utm_source=open_data_click_stop&utm_medium=open_data_stop_click&utm_campaign=open_data_click","","","0","Level 0",""
"16939","16939","Township/Boort - Quambatook Rd","-35.96952367","143.61884476","https://transport.vic.gov.au/stop/4394/?utm_source=open_data_click_stop&utm_medium=open_data_stop_click&utm_campaign=open_data_click","","","0","Level 0",""
"16940","16940","Kooloonong Rd/Murray Valley Hwy ","-34.71592244","143.15051986","https://transport.vic.gov.au/stop/4374/?utm_source=open_data_click_stop&utm_medium=open_data_stop_click&utm_campaign=open_data_click","","","0","Level 0",""
"16941","16941","Hunter St/Loddon Valley Hwy","-36.41040892","143.97426384","https://transport.vic.gov.au/stop/4375/?utm_source=open_data_click_stop&utm_medium=open_data_stop_click&utm_campaign=open_data_click","","","0","Level 0",""
"16942","16942","Hunter St/Loddon Valley Hwy","-36.41022777","143.97458304","https://transport.vic.gov.au/stop/4375/?utm_source=open_data_click_stop&utm_medium=open_data_stop_click&utm_campaign=open_data_click","","","0","Level 0",""
"16943","16943","Inglewood St/Bendigo - Pyramid Rd","-36.53589248","144.20632378","https://transport.vic.gov.au/stop/4376/?utm_source=open_data_click_stop&utm_medium=open_data_stop_click&utm_campaign=open_data_click","","","0","Level 0",""
"16944","16944","Inglewood St/Bendigo - Pyramid Rd","-36.53591546","144.20653513","https://transport.vic.gov.au/stop/4376/?utm_source=open_data_click_stop&utm_medium=open_data_stop_click&utm_campaign=open_data_click","","","0","Level 0",""
"16946","16946","General Store/Bendigo - Pyramid Rd ","-36.36898213","144.23196501","https://transport.vic.gov.au/stop/4662/?utm_source=open_data_click_stop&utm_medium=open_data_stop_click&utm_campaign=open_data_click","","","0","",""
"16947","16947","General Store/Bendigo-pyramid Rd ","-36.36873025","144.23198508","https://transport.vic.gov.au/stop/4663/?utm_source=open_data_click_stop&utm_medium=open_data_stop_click&utm_campaign=open_data_click","","","0","",""
"16948","16948","Glossop St/Bendigo - Pyramid Rd","-36.21157038","144.23186301","https://transport.vic.gov.au/stop/4063/?utm_source=open_data_click_stop&utm_medium=open_data_stop_click&utm_campaign=open_data_click","","","0","Level 0",""
"16949","16949","Glossop St/Bendigo - Pyramid Rd","-36.21128376","144.23193984","https://transport.vic.gov.au/stop/4063/?utm_source=open_data_click_stop&utm_medium=open_data_stop_click&utm_campaign=open_data_click","","","0","Level 0",""
"16950","16950","Boort - Pyramid Rd/Loddon Valley Hwy","-36.12572491","143.92078681","https://transport.vic.gov.au/stop/4379/?utm_source=open_data_click_stop&utm_medium=open_data_stop_click&utm_campaign=open_data_click","","","0","Level 0",""
"16953","16953","Post Office/King Edward St","-35.80907445","144.21977513","https://transport.vic.gov.au/stop/4174/?utm_source=open_data_click_stop&utm_medium=open_data_stop_click&utm_campaign=open_data_click","","","0","Level 0",""
"16955","16955","Kerang Station/Boundary St ","-35.73313736","143.92433606","https://transport.vic.gov.au/stop/4664/?utm_source=open_data_click_stop&utm_medium=open_data_stop_click&utm_campaign=open_data_click","","","0","",""
"16956","16956","Service Station/Murray Valley Hwy","-35.60801676","143.80177440","https://transport.vic.gov.au/stop/4176/?utm_source=open_data_click_stop&utm_medium=open_data_stop_click&utm_campaign=open_data_click","","","0","Level 0",""
"16957","16957","Murray Valley Hwy","-35.46381552","143.63653004","https://transport.vic.gov.au/stop/4380/?utm_source=open_data_click_stop&utm_medium=open_data_stop_click&utm_campaign=open_data_click","","","0","Level 0",""
"16958","16958","Murray Valley Hwy","-35.46404648","143.63641027","https://transport.vic.gov.au/stop/4380/?utm_source=open_data_click_stop&utm_medium=open_data_stop_click&utm_campaign=open_data_click","","","0","Level 0",""
"16959","16959","Swan Hill Station/Curlewis St ","-35.34166261","143.56231992","https://transport.vic.gov.au/stop/4665/?utm_source=open_data_click_stop&utm_medium=open_data_stop_click&utm_campaign=open_data_click","","","0","",""
"16961","16961","McAlpine Rd/Murray Valley Hwy","-35.17604617","143.37730304","https://transport.vic.gov.au/stop/4178/?utm_source=open_data_click_stop&utm_medium=open_data_stop_click&utm_campaign=open_data_click","","","0","Level 0",""
"16962","16962","McAlpine Rd/Murray Valley Hwy","-35.17551082","143.37748047","https://transport.vic.gov.au/stop/4178/?utm_source=open_data_click_stop&utm_medium=open_data_stop_click&utm_campaign=open_data_click","","","0","Level 0",""
"16963","16963","Wood Wood General Store/Murray Valley Hwy","-35.10442916","143.34592772","https://transport.vic.gov.au/stop/22770/?utm_source=open_data_click_stop&utm_medium=open_data_stop_click&utm_campaign=open_data_click","","","0","Level 0",""
"16964","16964","Wood Wood General Store/Murray Valley Hwy","-35.10460955","143.34563456","https://transport.vic.gov.au/stop/22770/?utm_source=open_data_click_stop&utm_medium=open_data_stop_click&utm_campaign=open_data_click","","","0","Level 0",""
"16965","16965","Kooloonong Rd/Murray Valley Hwy ","-34.71605568","143.15045912","https://transport.vic.gov.au/stop/4374/?utm_source=open_data_click_stop&utm_medium=open_data_stop_click&utm_campaign=open_data_click","","","0","Level 0",""
"16967","16967","Fitzgerald Rd/Robinvale - Sea Lake Rd","-34.70110102","142.79377641","https://transport.vic.gov.au/stop/4381/?utm_source=open_data_click_stop&utm_medium=open_data_stop_click&utm_campaign=open_data_click","","","0","Level 0",""
"16968","16968","Annuello turn off/Robinvale - Sea Lake Rd","-34.85398980","142.83328629","https://transport.vic.gov.au/stop/4382/?utm_source=open_data_click_stop&utm_medium=open_data_stop_click&utm_campaign=open_data_click","","","0","Level 0",""
"16969","16969","Robinvale Railway Station/Bromley Rd","-34.58479008","142.77034202","https://transport.vic.gov.au/stop/4296/?utm_source=open_data_click_stop&utm_medium=open_data_stop_click&utm_campaign=open_data_click","","","0","Level 0",""
"17124","17124","General Store/Murray St","-35.05422059","143.31058197","https://transport.vic.gov.au/stop/4383/?utm_source=open_data_click_stop&utm_medium=open_data_stop_click&utm_campaign=open_data_click","","","0","Level 0",""
"17125","17125","General Store/Murray St","-35.05384564","143.31069748","https://transport.vic.gov.au/stop/4383/?utm_source=open_data_click_stop&utm_medium=open_data_stop_click&utm_campaign=open_data_click","","","0","Level 0",""
"17126","17126","Robinvale - Sea Lake Rd/Mallee Hwy","-35.05506955","142.88233103","https://transport.vic.gov.au/stop/4179/?utm_source=open_data_click_stop&utm_medium=open_data_stop_click&utm_campaign=open_data_click","","","0","Level 0",""
"17127","17127","Robinvale - Sea Lake Rd/Mallee Hwy","-35.05466979","142.88196766","https://transport.vic.gov.au/stop/4179/?utm_source=open_data_click_stop&utm_medium=open_data_stop_click&utm_campaign=open_data_click","","","0","Level 0",""
"17128","17128","Corner Store/Main St","-36.78820953","143.55089342","https://transport.vic.gov.au/stop/4044/?utm_source=open_data_click_stop&utm_medium=open_data_stop_click&utm_campaign=open_data_click","","","0","Level 0",""
"17129","17129","Corner Store/Main St","-36.78816908","143.55105207","https://transport.vic.gov.au/stop/4044/?utm_source=open_data_click_stop&utm_medium=open_data_stop_click&utm_campaign=open_data_click","","","0","Level 0",""
"17130","17130","Poverty St/Commercial Rd","-36.77224733","143.83329733","https://transport.vic.gov.au/stop/4075/?utm_source=open_data_click_stop&utm_medium=open_data_stop_click&utm_campaign=open_data_click","","","0","Level 0",""
"17133","17133","Poverty St/Commercial Rd","-36.77156957","143.83322443","https://transport.vic.gov.au/stop/4075/?utm_source=open_data_click_stop&utm_medium=open_data_stop_click&utm_campaign=open_data_click","","","0","Level 0",""
"17138","17138","Carisbrook General Store/Green St","-37.04905498","143.81308822","https://transport.vic.gov.au/stop/4523/?utm_source=open_data_click_stop&utm_medium=open_data_stop_click&utm_campaign=open_data_click","","","0","Level 0",""
"17139","17139","Carisbrook General Store/Green St","-37.04897398","143.81309161","https://transport.vic.gov.au/stop/4523/?utm_source=open_data_click_stop&utm_medium=open_data_stop_click&utm_campaign=open_data_click","","","0","Level 0",""
"17140","17140","Locks Lane/Pyrenees Hwy","-37.07958099","143.93113076","https://transport.vic.gov.au/stop/4316/?utm_source=open_data_click_stop&utm_medium=open_data_stop_click&utm_campaign=open_data_click","","","0","Level 0",""
"17141","17141","Locks Lane/Pyrenees Hwy","-37.07944423","143.93106880","https://transport.vic.gov.au/stop/4316/?utm_source=open_data_click_stop&utm_medium=open_data_stop_click&utm_campaign=open_data_click","","","0","Level 0",""
"17142","17142","Panmure St/Pyrenees Hwy","-37.10668349","144.06148717","https://transport.vic.gov.au/stop/4317/?utm_source=open_data_click_stop&utm_medium=open_data_stop_click&utm_campaign=open_data_click","","","0","Level 0",""
"17143","17143","Panmure St/Pyrenees Hwy","-37.10679681","144.06169655","https://transport.vic.gov.au/stop/4317/?utm_source=open_data_click_stop&utm_medium=open_data_stop_click&utm_campaign=open_data_click","","","0","Level 0",""
"17144","17144","Market St/Harmony Way ","-36.99682825","144.26098202","https://transport.vic.gov.au/stop/4245/?utm_source=open_data_click_stop&utm_medium=open_data_stop_click&utm_campaign=open_data_click","","","0","Level 0",""
"17146","17146","Guildford General Store/Midland Hwy","-37.14898874","144.16644304","https://transport.vic.gov.au/stop/4243/?utm_source=open_data_click_stop&utm_medium=open_data_stop_click&utm_campaign=open_data_click","","","0","Level 0",""
"17147","17147","Guildford General Store/Midland Hwy","-37.14883003","144.16621256","https://transport.vic.gov.au/stop/4243/?utm_source=open_data_click_stop&utm_medium=open_data_stop_click&utm_campaign=open_data_click","","","0","Level 0",""
"17148","17148","CFA/Bridport St","-37.34271004","144.14103784","https://transport.vic.gov.au/stop/4246/?utm_source=open_data_click_stop&utm_medium=open_data_stop_click&utm_campaign=open_data_click","","","0","Level 0",""
"17149","17149","Hotel/Midland Hwy","-37.36722110","144.04223726","https://transport.vic.gov.au/stop/4100/?utm_source=open_data_click_stop&utm_medium=open_data_stop_click&utm_campaign=open_data_click","","","0","Level 0",""
"17150","17150","Hotel/Midland Hwy","-37.36727537","144.04188515","https://transport.vic.gov.au/stop/4100/?utm_source=open_data_click_stop&utm_medium=open_data_stop_click&utm_campaign=open_data_click","","","0","Level 0",""
"17151","17151","Antique Shop/Midland Hwy","-37.40177061","143.99450278","https://transport.vic.gov.au/stop/4244/?utm_source=open_data_click_stop&utm_medium=open_data_stop_click&utm_campaign=open_data_click","","","0","Level 0",""
"17152","17152","Antique Shop/Midland Hwy","-37.40167772","143.99439355","https://transport.vic.gov.au/stop/4244/?utm_source=open_data_click_stop&utm_medium=open_data_stop_click&utm_campaign=open_data_click","","","0","Level 0",""
"17153","17153","Hadfield Park/High St","-37.41416342","144.97920816","https://transport.vic.gov.au/stop/4327/?utm_source=open_data_click_stop&utm_medium=open_data_stop_click&utm_campaign=open_data_click","","","0","Level 0",""
"17154","17154","Hadfield Park/High St","-37.41434821","144.97947437","https://transport.vic.gov.au/stop/4327/?utm_source=open_data_click_stop&utm_medium=open_data_stop_click&utm_campaign=open_data_click","","","0","Level 0",""
"17155","17155","Murchison/Stevenson St","-36.61657460","145.21708767","https://transport.vic.gov.au/stop/4186/?utm_source=open_data_click_stop&utm_medium=open_data_stop_click&utm_campaign=open_data_click","","","0","Level 0",""
"17156","17156","Murchison East Station/Cassidys Rd ","-36.61304503","145.24038074","https://transport.vic.gov.au/stop/4666/?utm_source=open_data_click_stop&utm_medium=open_data_stop_click&utm_campaign=open_data_click","","","0","",""
"17191","17191","Seymour Station/Railway Pl ","-37.02529210","145.13744507","https://transport.vic.gov.au/stop/4667/?utm_source=open_data_click_stop&utm_medium=open_data_stop_click&utm_campaign=open_data_click","","","0","",""
"17226","17226","Broadford Station/High St ","-37.20727014","145.04285962","https://transport.vic.gov.au/stop/4668/?utm_source=open_data_click_stop&utm_medium=open_data_stop_click&utm_campaign=open_data_click","","","0","",""
"17231","17231","Euroa Station/Railway St","-36.74939600","145.56841973","https://transport.vic.gov.au/stop/4576/?utm_source=open_data_click_stop&utm_medium=open_data_stop_click&utm_campaign=open_data_click","","","0","Level 0",""
"17234","17234","Benalla Station/Mackellar St ","-36.54482148","145.98400088","https://transport.vic.gov.au/stop/4669/?utm_source=open_data_click_stop&utm_medium=open_data_stop_click&utm_campaign=open_data_click","","","0","",""
"17236","17236","Victory Park/Hall Rd","-36.41122623","145.92276243","https://transport.vic.gov.au/stop/4549/?utm_source=open_data_click_stop&utm_medium=open_data_stop_click&utm_campaign=open_data_click","","","0","Level 0",""
"17237","17237","Victory Park/Hall Rd","-36.41111026","145.92289787","https://transport.vic.gov.au/stop/4549/?utm_source=open_data_click_stop&utm_medium=open_data_stop_click&utm_campaign=open_data_click","","","0","Level 0",""
"17238","17238","Town Hall/Devenish Rd","-36.33106879","145.89447576","https://transport.vic.gov.au/stop/4139/?utm_source=open_data_click_stop&utm_medium=open_data_stop_click&utm_campaign=open_data_click","","","0","Level 0",""
"17239","17239","Town Hall/Devenish Rd","-36.33092560","145.89458919","https://transport.vic.gov.au/stop/4139/?utm_source=open_data_click_stop&utm_medium=open_data_stop_click&utm_campaign=open_data_click","","","0","Level 0",""
"17240","17240","St James Rd/Devenish Rd","-36.26994642","145.89439180","https://transport.vic.gov.au/stop/4428/?utm_source=open_data_click_stop&utm_medium=open_data_stop_click&utm_campaign=open_data_click","","","0","Level 0",""
"17241","17241","St James Rd/Devenish Rd","-36.26997429","145.89448047","https://transport.vic.gov.au/stop/4428/?utm_source=open_data_click_stop&utm_medium=open_data_stop_click&utm_campaign=open_data_click","","","0","Level 0",""
"17242","17242","Saunders Reserve/Middleton St","-36.16403339","145.87753680","https://transport.vic.gov.au/stop/4427/?utm_source=open_data_click_stop&utm_medium=open_data_stop_click&utm_campaign=open_data_click","","","0","Level 0",""
"17243","17243","Saunders Reserve/Middleton St","-36.16384430","145.87756173","https://transport.vic.gov.au/stop/4427/?utm_source=open_data_click_stop&utm_medium=open_data_stop_click&utm_campaign=open_data_click","","","0","Level 0",""
"17245","17245","Melbourne St/Inglis St","-35.98922565","146.00509528","https://transport.vic.gov.au/stop/4426/?utm_source=open_data_click_stop&utm_medium=open_data_stop_click&utm_campaign=open_data_click","","","0","Level 0",""
"17246","17246","Sanger St/River St","-35.99877674","146.39142041","https://transport.vic.gov.au/stop/4299/?utm_source=open_data_click_stop&utm_medium=open_data_stop_click&utm_campaign=open_data_click","","","0","Level 0",""
"17247","17247","Blanche St/Foord St","-36.01027622","146.39406180","https://transport.vic.gov.au/stop/4350/?utm_source=open_data_click_stop&utm_medium=open_data_stop_click&utm_campaign=open_data_click","","","0","Level 0",""
"17248","17248","Blanche St/Foord St","-36.01028428","146.39387310","https://transport.vic.gov.au/stop/4350/?utm_source=open_data_click_stop&utm_medium=open_data_stop_click&utm_campaign=open_data_click","","","0","Level 0",""
"17253","17253","Wangaratta Station/Norton St ","-36.35506560","146.31717251","https://transport.vic.gov.au/stop/4670/?utm_source=open_data_click_stop&utm_medium=open_data_stop_click&utm_campaign=open_data_click","","","0","",""
"17257","17257","Wodonga Station/Moloney Dr ","-36.10515083","146.87118901","https://transport.vic.gov.au/stop/4671/?utm_source=open_data_click_stop&utm_medium=open_data_stop_click&utm_campaign=open_data_click","","","0","",""
"17265","17265","Station St/High St","-38.10143813","145.28240193","https://transport.vic.gov.au/stop/4437/?utm_source=open_data_click_stop&utm_medium=open_data_stop_click&utm_campaign=open_data_click","","","0","Level 0",""
"17326","17326","Cranbourne Park SC/High St","-38.10890231","145.28318518","https://transport.vic.gov.au/stop/4537/?utm_source=open_data_click_stop&utm_medium=open_data_stop_click&utm_campaign=open_data_click","","","0","Level 0",""
"17337","17337","Clyde-Five Ways Rd/South Gippsland Hwy","-38.15946810","145.31812336","https://transport.vic.gov.au/stop/4147/?utm_source=open_data_click_stop&utm_medium=open_data_stop_click&utm_campaign=open_data_click","","","0","Level 0",""
"17338","17338","Clyde-Five Ways Rd/South Gippsland Hwy","-38.15897638","145.31839716","https://transport.vic.gov.au/stop/4454/?utm_source=open_data_click_stop&utm_medium=open_data_stop_click&utm_campaign=open_data_click","","","0","Level 0",""
"17339","17339","Lyall St/South Gippsland Hwy","-38.21366386","145.38153618","https://transport.vic.gov.au/stop/4169/?utm_source=open_data_click_stop&utm_medium=open_data_stop_click&utm_campaign=open_data_click","","","0","Level 0",""
"17340","17340","Mickle St/South Gippsland Hwy","-38.21374733","145.38105461","https://transport.vic.gov.au/stop/4587/?utm_source=open_data_click_stop&utm_medium=open_data_stop_click&utm_campaign=open_data_click","","","0","Level 0",""
"17341","17341","Koo Wee Rup Bus Interchange/Rossiter Rd","-38.19998192","145.49026010","https://transport.vic.gov.au/stop/4456/?utm_source=open_data_click_stop&utm_medium=open_data_stop_click&utm_campaign=open_data_click","","","0","Level 0",""
"17342","17342","Lang Lang Bus Interchange/Western Port Rd","-38.26558055","145.56286864","https://transport.vic.gov.au/stop/4457/?utm_source=open_data_click_stop&utm_medium=open_data_stop_click&utm_campaign=open_data_click","","","0","Level 0",""
"17343","17343","Mitchell St/Davis St","-38.33491718","145.67217180","https://transport.vic.gov.au/stop/4355/?utm_source=open_data_click_stop&utm_medium=open_data_stop_click&utm_campaign=open_data_click","","","0","Level 0",""
"17344","17344","Mitchell St/Davis St","-38.33375800","145.67246755","https://transport.vic.gov.au/stop/4355/?utm_source=open_data_click_stop&utm_medium=open_data_stop_click&utm_campaign=open_data_click","","","0","Level 0",""
"17345","17345","Clarence St/Victoria Rd","-38.36868909","145.70644445","https://transport.vic.gov.au/stop/4551/?utm_source=open_data_click_stop&utm_medium=open_data_stop_click&utm_campaign=open_data_click","","","0","Level 0",""
"17346","17346","Clarence St/Victoria Rd","-38.36881384","145.70631632","https://transport.vic.gov.au/stop/4551/?utm_source=open_data_click_stop&utm_medium=open_data_stop_click&utm_campaign=open_data_click","","","0","Level 0",""
"17347","17347","King St/Commercial St","-38.43088064","145.82282312","https://transport.vic.gov.au/stop/4442/?utm_source=open_data_click_stop&utm_medium=open_data_stop_click&utm_campaign=open_data_click","","","0","Level 0",""
"17348","17348","King St/Commercial St","-38.43036697","145.82192639","https://transport.vic.gov.au/stop/4442/?utm_source=open_data_click_stop&utm_medium=open_data_stop_click&utm_campaign=open_data_click","","","0","Level 0",""
"17349","17349","Coal Creek Museum/South Gippsland Hwy","-38.44157669","145.82992546","https://transport.vic.gov.au/stop/4445/?utm_source=open_data_click_stop&utm_medium=open_data_stop_click&utm_campaign=open_data_click","","","0","Level 0",""
"17350","17350","Coal Creek Museum/South Gippsland Hwy","-38.44032193","145.82881136","https://transport.vic.gov.au/stop/4445/?utm_source=open_data_click_stop&utm_medium=open_data_stop_click&utm_campaign=open_data_click","","","0","Level 0",""
"17351","17351","Leongatha Railway Station/Long St","-38.47713866","145.94788910","https://transport.vic.gov.au/stop/4448/?utm_source=open_data_click_stop&utm_medium=open_data_stop_click&utm_campaign=open_data_click","","","0","Level 0",""
"17352","17352","Welsford St/South Gippsland Hwy","-38.57774587","146.01414418","https://transport.vic.gov.au/stop/4439/?utm_source=open_data_click_stop&utm_medium=open_data_stop_click&utm_campaign=open_data_click","","","0","Level 0",""
"17353","17353","Welsford St/South Gippsland Hwy","-38.57894421","146.01198098","https://transport.vic.gov.au/stop/4439/?utm_source=open_data_click_stop&utm_medium=open_data_stop_click&utm_campaign=open_data_click","","","0","Level 0",""
"17354","17354","Neals Rd/Meeniyan - Promontory Rd","-38.64981007","146.01819064","https://transport.vic.gov.au/stop/3334/?utm_source=open_data_click_stop&utm_medium=open_data_stop_click&utm_campaign=open_data_click","","","0","Level 0",""
"17355","17355","Neals Rd/Meeniyan - Promontory Rd","-38.64985454","146.01812108","https://transport.vic.gov.au/stop/3334/?utm_source=open_data_click_stop&utm_medium=open_data_stop_click&utm_campaign=open_data_click","","","0","Level 0",""
"17356","17356","Roo Fuel/Meeniyan - Promontory Rd","-38.69407602","146.08269166","https://transport.vic.gov.au/stop/4438/?utm_source=open_data_click_stop&utm_medium=open_data_stop_click&utm_campaign=open_data_click","","","0","Level 0",""
"17357","17357","Roo Fuel/Meeniyan - Promontory Rd","-38.69414711","146.08256427","https://transport.vic.gov.au/stop/4438/?utm_source=open_data_click_stop&utm_medium=open_data_stop_click&utm_campaign=open_data_click","","","0","Level 0",""
"17358","17358","Pulhams Store/Main St","-38.65221425","146.20016949","https://transport.vic.gov.au/stop/4552/?utm_source=open_data_click_stop&utm_medium=open_data_stop_click&utm_campaign=open_data_click","","","0","Level 0",""
"17360","17360","Newsagency/Stanley St","-38.66480010","146.32387945","https://transport.vic.gov.au/stop/4440/?utm_source=open_data_click_stop&utm_medium=open_data_stop_click&utm_campaign=open_data_click","","","0","Level 0",""
"17361","17361","Post Office/South Gippsland Hwy","-38.66545237","146.43679393","https://transport.vic.gov.au/stop/4447/?utm_source=open_data_click_stop&utm_medium=open_data_stop_click&utm_campaign=open_data_click","","","0","Level 0",""
"17362","17362","Post Office/South Gippsland Hwy","-38.66560639","146.43696514","https://transport.vic.gov.au/stop/4447/?utm_source=open_data_click_stop&utm_medium=open_data_stop_click&utm_campaign=open_data_click","","","0","Level 0",""
"17363","17363","Alberton Store/South Gippsland Hwy","-38.61461439","146.66674565","https://transport.vic.gov.au/stop/4435/?utm_source=open_data_click_stop&utm_medium=open_data_stop_click&utm_campaign=open_data_click","","","0","Level 0",""
"17364","17364","Alberton Store/South Gippsland Hwy","-38.61439860","146.66691895","https://transport.vic.gov.au/stop/4435/?utm_source=open_data_click_stop&utm_medium=open_data_stop_click&utm_campaign=open_data_click","","","0","Level 0",""
"17365","17365","Memorial Park/Grant St","-38.56484586","146.67475800","https://transport.vic.gov.au/stop/4446/?utm_source=open_data_click_stop&utm_medium=open_data_stop_click&utm_campaign=open_data_click","","","0","Level 0",""
"17368","17368","Pier Rd/Bass Hwy","-38.40695913","145.53038754","https://transport.vic.gov.au/stop/4459/?utm_source=open_data_click_stop&utm_medium=open_data_stop_click&utm_campaign=open_data_click","","","0","Level 0",""
"17369","17369","Grantville-Glen Alvie Rd/Bass Hwy","-38.40815348","145.53005413","https://transport.vic.gov.au/stop/4564/?utm_source=open_data_click_stop&utm_medium=open_data_stop_click&utm_campaign=open_data_click","","","0","Level 0",""
"17370","17370","Corinella Rd/Bass Hwy","-38.43365421","145.49651869","https://transport.vic.gov.au/stop/4460/?utm_source=open_data_click_stop&utm_medium=open_data_stop_click&utm_campaign=open_data_click","","","0","Level 0",""
"17371","17371","Corinella Rd/Bass Hwy","-38.43296908","145.49649853","https://transport.vic.gov.au/stop/4460/?utm_source=open_data_click_stop&utm_medium=open_data_stop_click&utm_campaign=open_data_click","","","0","Level 0",""
"17375","17375","5 Bass School Rd","-38.48397983","145.46636461","https://transport.vic.gov.au/stop/4560/?utm_source=open_data_click_stop&utm_medium=open_data_stop_click&utm_campaign=open_data_click","","","0","Level 0",""
"17376","17376","63-65 Hade Ave","-38.48326617","145.46691857","https://transport.vic.gov.au/stop/4463/?utm_source=open_data_click_stop&utm_medium=open_data_stop_click&utm_campaign=open_data_click","","","0","Level 0",""
"17377","17377","Anderson Bus Interchange/Bass Hwy","-38.52634636","145.44752435","https://transport.vic.gov.au/stop/4464/?utm_source=open_data_click_stop&utm_medium=open_data_stop_click&utm_campaign=open_data_click","","","0","Level 0",""
"17378","17378","San Remo Post Office/Marine Pde","-38.52065913","145.37117309","https://transport.vic.gov.au/stop/4465/?utm_source=open_data_click_stop&utm_medium=open_data_stop_click&utm_campaign=open_data_click","","","0","Level 0",""
"17379","17379","Forrest Ave/Phillip Island Rd","-38.51490323","145.35779179","https://transport.vic.gov.au/stop/4153/?utm_source=open_data_click_stop&utm_medium=open_data_stop_click&utm_campaign=open_data_click","","","0","Level 0",""
"17380","17380","Forrest Ave/Phillip Island Rd","-38.51534543","145.35912367","https://transport.vic.gov.au/stop/4153/?utm_source=open_data_click_stop&utm_medium=open_data_stop_click&utm_campaign=open_data_click","","","0","Level 0",""
"17381","17381","Walton St/Thompson Ave","-38.45904751","145.23906754","https://transport.vic.gov.au/stop/4467/?utm_source=open_data_click_stop&utm_medium=open_data_stop_click&utm_campaign=open_data_click","","","0","Level 0",""
"17382","17382","Walton St/Thompson Ave","-38.45876448","145.23882229","https://transport.vic.gov.au/stop/4467/?utm_source=open_data_click_stop&utm_medium=open_data_stop_click&utm_campaign=open_data_click","","","0","Level 0",""
"17384","17384","Peppermint Rd/Bass Hwy","-38.54945514","145.47592172","https://transport.vic.gov.au/stop/4469/?utm_source=open_data_click_stop&utm_medium=open_data_stop_click&utm_campaign=open_data_click","","","0","Level 0",""
"17385","17385","Peppermint Rd/Bass Hwy","-38.54957031","145.47577011","https://transport.vic.gov.au/stop/4469/?utm_source=open_data_click_stop&utm_medium=open_data_stop_click&utm_campaign=open_data_click","","","0","Level 0",""
"17386","17386","Ozone Hotel/Bass Hwy","-38.56346525","145.54656746","https://transport.vic.gov.au/stop/4470/?utm_source=open_data_click_stop&utm_medium=open_data_stop_click&utm_campaign=open_data_click","","","0","Level 0",""
"17387","17387","Ozone Hotel/Bass Hwy","-38.56332282","145.54670806","https://transport.vic.gov.au/stop/4470/?utm_source=open_data_click_stop&utm_medium=open_data_stop_click&utm_campaign=open_data_click","","","0","Level 0",""
"17419","17419","Albury Station/Hume Hwy ","-36.08424346","146.92432663","https://transport.vic.gov.au/stop/4672/?utm_source=open_data_click_stop&utm_medium=open_data_stop_click&utm_campaign=open_data_click","","","0","","Bay A"
"17452","17452","Visitors Centre/Jondaryan Ave","-34.28905997","146.05059361","https://transport.vic.gov.au/stop/4416/?utm_source=open_data_click_stop&utm_medium=open_data_stop_click&utm_campaign=open_data_click","","","0","Level 0",""
"17453","17453","Rivadestra Pizza & Pasta/Bridge Rd","-34.56765206","146.00026920","https://transport.vic.gov.au/stop/4422/?utm_source=open_data_click_stop&utm_medium=open_data_stop_click&utm_campaign=open_data_click","","","0","Level 0",""
"17480","17480","Opposite Bendigo Bank/Kingfisher Ave","-34.80520784","145.88124357","https://transport.vic.gov.au/stop/4414/?utm_source=open_data_click_stop&utm_medium=open_data_stop_click&utm_campaign=open_data_click","","","0","Level 0",""
"17486","17486","Caltex Roadhouse/Newell Hwy","-35.35885716","145.73968008","https://transport.vic.gov.au/stop/4421/?utm_source=open_data_click_stop&utm_medium=open_data_stop_click&utm_campaign=open_data_click","","","0","Level 0",""
"17531","17531","Caltex Roadhouse/Newell Hwy","-35.35860131","145.73935387","https://transport.vic.gov.au/stop/4421/?utm_source=open_data_click_stop&utm_medium=open_data_stop_click&utm_campaign=open_data_click","","","0","Level 0",""
"17532","17532","Memorial Park/Wollamai St","-35.63997707","145.57944397","https://transport.vic.gov.au/stop/4419/?utm_source=open_data_click_stop&utm_medium=open_data_stop_click&utm_campaign=open_data_click","","","0","Level 0",""
"17566","17566","Deniliquin Rd/Morris St","-35.81180484","145.56745752","https://transport.vic.gov.au/stop/4051/?utm_source=open_data_click_stop&utm_medium=open_data_stop_click&utm_campaign=open_data_click","","","0","Level 0",""
"17567","17567","General Store/Nangunia St","-35.91193650","145.69053807","https://transport.vic.gov.au/stop/4417/?utm_source=open_data_click_stop&utm_medium=open_data_stop_click&utm_campaign=open_data_click","","","0","Level 0",""
"17568","17568","General Store/Nangunia St","-35.91207600","145.69010357","https://transport.vic.gov.au/stop/4417/?utm_source=open_data_click_stop&utm_medium=open_data_stop_click&utm_campaign=open_data_click","","","0","Level 0",""
"17569","17569","Cobram Station/Punt Rd","-35.92047989","145.64476722","https://transport.vic.gov.au/stop/4352/?utm_source=open_data_click_stop&utm_medium=open_data_stop_click&utm_campaign=open_data_click","","","0","Level 0",""
"17570","17570","Kokoda Rd/Murray Valley Hwy","-35.92556218","145.56016550","https://transport.vic.gov.au/stop/4353/?utm_source=open_data_click_stop&utm_medium=open_data_stop_click&utm_campaign=open_data_click","","","0","Level 0",""
"17571","17571","Kokoda Rd/Murray Valley Hwy","-35.92538760","145.55989157","https://transport.vic.gov.au/stop/4353/?utm_source=open_data_click_stop&utm_medium=open_data_stop_click&utm_campaign=open_data_click","","","0","Level 0",""
"17572","17572","Maguire St/Murray Valley Hwy","-35.92534871","145.47925780","https://transport.vic.gov.au/stop/4354/?utm_source=open_data_click_stop&utm_medium=open_data_stop_click&utm_campaign=open_data_click","","","0","Level 0",""
"17573","17573","Maguire St/Murray Valley Hwy","-35.92573517","145.47845237","https://transport.vic.gov.au/stop/4354/?utm_source=open_data_click_stop&utm_medium=open_data_stop_click&utm_campaign=open_data_click","","","0","Level 0",""
"17574","17574","General Store/Numurkah Rd","-35.99937414","145.46043097","https://transport.vic.gov.au/stop/4415/?utm_source=open_data_click_stop&utm_medium=open_data_stop_click&utm_campaign=open_data_click","","","0","Level 0",""
"17575","17575","General Store/Numurkah Rd","-35.99934582","145.46033167","https://transport.vic.gov.au/stop/4415/?utm_source=open_data_click_stop&utm_medium=open_data_stop_click&utm_campaign=open_data_click","","","0","Level 0",""
"17576","17576","Quinn St/Mieklejohn St","-36.08994788","145.44101754","https://transport.vic.gov.au/stop/4356/?utm_source=open_data_click_stop&utm_medium=open_data_stop_click&utm_campaign=open_data_click","","","0","Level 0",""
"17577","17577","Walter St/Goulburn Valley Hwy","-36.15373276","145.43178569","https://transport.vic.gov.au/stop/4424/?utm_source=open_data_click_stop&utm_medium=open_data_stop_click&utm_campaign=open_data_click","","","0","Level 0",""
"17578","17578","Walter St/Goulburn Valley Hwy","-36.15389425","145.43172689","https://transport.vic.gov.au/stop/4424/?utm_source=open_data_click_stop&utm_medium=open_data_stop_click&utm_campaign=open_data_click","","","0","Level 0",""
"17579","17579","Victoria Rd/Goulburn Valley Hwy","-36.23912022","145.43186198","https://transport.vic.gov.au/stop/4423/?utm_source=open_data_click_stop&utm_medium=open_data_stop_click&utm_campaign=open_data_click","","","0","Level 0",""
"17580","17580","Victoria Rd/Goulburn Valley Hwy","-36.23893501","145.43148734","https://transport.vic.gov.au/stop/4423/?utm_source=open_data_click_stop&utm_medium=open_data_stop_click&utm_campaign=open_data_click","","","0","Level 0",""
"17581","17581","Hogan St/Fraser St","-36.44047613","145.22530943","https://transport.vic.gov.au/stop/4505/?utm_source=open_data_click_stop&utm_medium=open_data_stop_click&utm_campaign=open_data_click","","","0","Level 0",""
"17584","17584","General Store/Whittlesea-Yea Rd","-37.47562550","145.23679407","https://transport.vic.gov.au/stop/4410/?utm_source=open_data_click_stop&utm_medium=open_data_stop_click&utm_campaign=open_data_click","","","0","Level 0",""
"17585","17585","Silver Creek Rd/Whittlesea-Yea Rd","-37.37398093","145.28024995","https://transport.vic.gov.au/stop/4405/?utm_source=open_data_click_stop&utm_medium=open_data_stop_click&utm_campaign=open_data_click","","","0","Level 0",""
"17586","17586","Silver Creek Rd/Whittlesea-Yea Rd","-37.37443796","145.28007011","https://transport.vic.gov.au/stop/4405/?utm_source=open_data_click_stop&utm_medium=open_data_stop_click&utm_campaign=open_data_click","","","0","Level 0",""
"17587","17587","Hazeldene Bridge/Whittlesea-Yea Rd","-37.34416456","145.28880987","https://transport.vic.gov.au/stop/4525/?utm_source=open_data_click_stop&utm_medium=open_data_stop_click&utm_campaign=open_data_click","","","0","Level 0",""
"17588","17588","Hazeldene Bridge/Whittlesea-Yea Rd","-37.34419469","145.28902368","https://transport.vic.gov.au/stop/4525/?utm_source=open_data_click_stop&utm_medium=open_data_stop_click&utm_campaign=open_data_click","","","0","Level 0",""
"17589","17589","Flowerdale Hotel/Whittlesea-Yea Rd","-37.32069712","145.28832657","https://transport.vic.gov.au/stop/4409/?utm_source=open_data_click_stop&utm_medium=open_data_stop_click&utm_campaign=open_data_click","","","0","Level 0",""
"17590","17590","Flowerdale Hotel/Whittlesea-Yea Rd","-37.32033953","145.28790584","https://transport.vic.gov.au/stop/4409/?utm_source=open_data_click_stop&utm_medium=open_data_stop_click&utm_campaign=open_data_click","","","0","Level 0",""
"17681","17681","Moorabool St/Malop St ","-38.14722853","144.36036933","https://transport.vic.gov.au/stop/4018/?utm_source=open_data_click_stop&utm_medium=open_data_stop_click&utm_campaign=open_data_click","","","0","Level 0",""
"17686","17686","Grossmans Rd/Surf Coast Hwy","-38.32305767","144.31840797","https://transport.vic.gov.au/stop/4011/?utm_source=open_data_click_stop&utm_medium=open_data_stop_click&utm_campaign=open_data_click","","","0","Level 0",""
"17689","17689","Ocean View Cres/Great Ocean Rd","-38.33880864","144.30589535","https://transport.vic.gov.au/stop/4595/?utm_source=open_data_click_stop&utm_medium=open_data_stop_click&utm_campaign=open_data_click","","","0","Level 0",""
"17691","17691","Bells Bvd/Great Ocean Rd","-38.33852316","144.28610380","https://transport.vic.gov.au/stop/4005/?utm_source=open_data_click_stop&utm_medium=open_data_stop_click&utm_campaign=open_data_click","","","0","Level 0",""
"17692","17692","Bells Bvd/Great Ocean Rd","-38.33884166","144.28779643","https://transport.vic.gov.au/stop/4005/?utm_source=open_data_click_stop&utm_medium=open_data_stop_click&utm_campaign=open_data_click","","","0","Level 0",""
"17693","17693","Adiscott Rd/Great Ocean Rd","-38.34955887","144.25778614","https://transport.vic.gov.au/stop/4002/?utm_source=open_data_click_stop&utm_medium=open_data_stop_click&utm_campaign=open_data_click","","","0","Level 0",""
"17694","17694","Adiscott Rd/Great Ocean Rd","-38.34940236","144.25764330","https://transport.vic.gov.au/stop/4002/?utm_source=open_data_click_stop&utm_medium=open_data_stop_click&utm_campaign=open_data_click","","","0","Level 0",""
"17695","17695","Great Ocean Rd/Camp Rd","-38.40450774","144.18850979","https://transport.vic.gov.au/stop/4006/?utm_source=open_data_click_stop&utm_medium=open_data_stop_click&utm_campaign=open_data_click","","","0","Level 0",""
"17697","17697","Anglesea Motor Inn/Great Ocean Rd","-38.40899313","144.18657248","https://transport.vic.gov.au/stop/4016/?utm_source=open_data_click_stop&utm_medium=open_data_stop_click&utm_campaign=open_data_click","","","0","Level 0",""
"17698","17698","Anglesea Motor Inn/Great Ocean Rd","-38.40911475","144.18638455","https://transport.vic.gov.au/stop/4016/?utm_source=open_data_click_stop&utm_medium=open_data_stop_click&utm_campaign=open_data_click","","","0","Level 0",""
"17699","17699","Point Roadknight/Great Ocean Rd","-38.42038893","144.17490683","https://transport.vic.gov.au/stop/4008/?utm_source=open_data_click_stop&utm_medium=open_data_stop_click&utm_campaign=open_data_click","","","0","Level 0",""
"17700","17700","Point Roadknight/Great Ocean Rd","-38.42087715","144.17385708","https://transport.vic.gov.au/stop/4008/?utm_source=open_data_click_stop&utm_medium=open_data_stop_click&utm_campaign=open_data_click","","","0","Level 0",""
"17701","17701","Post Office/Great Ocean Rd","-38.45874193","144.10697476","https://transport.vic.gov.au/stop/4003/?utm_source=open_data_click_stop&utm_medium=open_data_stop_click&utm_campaign=open_data_click","","","0","Level 0",""
"17702","17702","Post Office/Great Ocean Rd","-38.45843251","144.10684963","https://transport.vic.gov.au/stop/4003/?utm_source=open_data_click_stop&utm_medium=open_data_stop_click&utm_campaign=open_data_click","","","0","Level 0",""
"17703","17703","Bambra Rd/Great Ocean Rd","-38.46473806","144.10024911","https://transport.vic.gov.au/stop/4004/?utm_source=open_data_click_stop&utm_medium=open_data_stop_click&utm_campaign=open_data_click","","","0","Level 0",""
"17704","17704","Bambra Rd/Great Ocean Rd","-38.46459348","144.10023198","https://transport.vic.gov.au/stop/4004/?utm_source=open_data_click_stop&utm_medium=open_data_stop_click&utm_campaign=open_data_click","","","0","Level 0",""
"17705","17705","Yarringa Rd/Great Ocean Rd","-38.46810752","144.08501011","https://transport.vic.gov.au/stop/4026/?utm_source=open_data_click_stop&utm_medium=open_data_stop_click&utm_campaign=open_data_click","","","0","Level 0",""
"17706","17706","Yarringa Rd/Great Ocean Rd","-38.46797662","144.08554253","https://transport.vic.gov.au/stop/4026/?utm_source=open_data_click_stop&utm_medium=open_data_stop_click&utm_campaign=open_data_click","","","0","Level 0",""
"17707","17707","Golf Links Rd/Great Ocean Rd","-38.47223009","144.04390765","https://transport.vic.gov.au/stop/4010/?utm_source=open_data_click_stop&utm_medium=open_data_stop_click&utm_campaign=open_data_click","","","0","Level 0",""
"17708","17708","Golf Links Rd/Great Ocean Rd","-38.47182009","144.04444012","https://transport.vic.gov.au/stop/4010/?utm_source=open_data_click_stop&utm_medium=open_data_stop_click&utm_campaign=open_data_click","","","0","Level 0",""
"17711","17711","Lorne Visitor Centre/Great Ocean Rd","-38.53724283","143.97452232","https://transport.vic.gov.au/stop/4536/?utm_source=open_data_click_stop&utm_medium=open_data_stop_click&utm_campaign=open_data_click","","","0","Level 0",""
"17712","17712","Lorne Visitor Centre/Great Ocean Rd","-38.53724650","143.97431570","https://transport.vic.gov.au/stop/4536/?utm_source=open_data_click_stop&utm_medium=open_data_stop_click&utm_campaign=open_data_click","","","0","Level 0",""
"17713","17713","McRae Rd/Great Ocean Rd","-38.63499833","143.89097684","https://transport.vic.gov.au/stop/4015/?utm_source=open_data_click_stop&utm_medium=open_data_stop_click&utm_campaign=open_data_click","","","0","Level 0",""
"17714","17714","McRae Rd/Great Ocean Rd","-38.63516564","143.89083178","https://transport.vic.gov.au/stop/4015/?utm_source=open_data_click_stop&utm_medium=open_data_stop_click&utm_campaign=open_data_click","","","0","Level 0",""
"17715","17715","Hawdon Ave/Great Ocean Rd","-38.66856128","143.86216385","https://transport.vic.gov.au/stop/4014/?utm_source=open_data_click_stop&utm_medium=open_data_stop_click&utm_campaign=open_data_click","","","0","Level 0",""
"17717","17717","Skenes Creek Valley Rd/Great Ocean Rd","-38.72499803","143.71012462","https://transport.vic.gov.au/stop/4021/?utm_source=open_data_click_stop&utm_medium=open_data_stop_click&utm_campaign=open_data_click","","","0","Level 0",""
"17718","17718","Pisces Holiday Park/Great Ocean Rd","-38.74171599","143.67538986","https://transport.vic.gov.au/stop/4009/?utm_source=open_data_click_stop&utm_medium=open_data_stop_click&utm_campaign=open_data_click","","","0","Level 0",""
"17719","17719","Pisces Holiday Park/Great Ocean Rd","-38.74167837","143.67533409","https://transport.vic.gov.au/stop/4009/?utm_source=open_data_click_stop&utm_medium=open_data_stop_click&utm_campaign=open_data_click","","","0","Level 0",""
"17720","17720","Visitor Information Centre/Great Ocean Rd","-38.75454390","143.66906494","https://transport.vic.gov.au/stop/4599/?utm_source=open_data_click_stop&utm_medium=open_data_stop_click&utm_campaign=open_data_click","","","0","Level 0",""
"17721","17721","Great Ocean Rd","-38.68066390","143.39122219","https://transport.vic.gov.au/stop/4029/?utm_source=open_data_click_stop&utm_medium=open_data_stop_click&utm_campaign=open_data_click","","","0","Level 0",""
"17722","17722","Old Ocean Rd/Great Ocean Rd","-38.69112979","143.15548608","https://transport.vic.gov.au/stop/4034/?utm_source=open_data_click_stop&utm_medium=open_data_stop_click&utm_campaign=open_data_click","","","0","Level 0",""
"17723","17723","Old Ocean Rd/Great Ocean Rd","-38.69126511","143.15576615","https://transport.vic.gov.au/stop/4034/?utm_source=open_data_click_stop&utm_medium=open_data_stop_click&utm_campaign=open_data_click","","","0","Level 0",""
"17726","17726","Surf Club/Tregea St","-38.61920367","142.99377651","https://transport.vic.gov.au/stop/4028/?utm_source=open_data_click_stop&utm_medium=open_data_stop_click&utm_campaign=open_data_click","","","0","Level 0",""
"17727","17727","London Bridge/Great Ocean Rd","-38.62173473","142.93459916","https://transport.vic.gov.au/stop/4032/?utm_source=open_data_click_stop&utm_medium=open_data_stop_click&utm_campaign=open_data_click","","","0","Level 0",""
"17729","17729","Peterborough General Store/Macs St ","-38.60700037","142.87756819","https://transport.vic.gov.au/stop/4027/?utm_source=open_data_click_stop&utm_medium=open_data_stop_click&utm_campaign=open_data_click","","","0","Level 0",""
"17731","17731","Bay  of Islands","-38.58486519","142.82742848","https://transport.vic.gov.au/stop/4528/?utm_source=open_data_click_stop&utm_medium=open_data_stop_click&utm_campaign=open_data_click","","","0","Level 0",""
"17733","17733","Warrnambool Station/Merri St","-38.38510866","142.47566499","https://transport.vic.gov.au/stop/4103/?utm_source=open_data_click_stop&utm_medium=open_data_stop_click&utm_campaign=open_data_click","","","0","","Bay A"
"17737","17737","Spring St/Commercial Rd","-38.29165772","142.36250943","https://transport.vic.gov.au/stop/4155/?utm_source=open_data_click_stop&utm_medium=open_data_stop_click&utm_campaign=open_data_click","","","0","Level 0",""
"17738","17738","Spring St/Commercial Rd","-38.29138679","142.36203536","https://transport.vic.gov.au/stop/4155/?utm_source=open_data_click_stop&utm_medium=open_data_stop_click&utm_campaign=open_data_click","","","0","Level 0",""
"17740","17740","Annesley St","-38.31634446","142.06725382","https://transport.vic.gov.au/stop/4157/?utm_source=open_data_click_stop&utm_medium=open_data_stop_click&utm_campaign=open_data_click","","","0","Level 0",""
"17742","17742","Princes Hwy","-38.21888227","141.77933559","https://transport.vic.gov.au/stop/4158/?utm_source=open_data_click_stop&utm_medium=open_data_stop_click&utm_campaign=open_data_click","","","0","Level 0",""
"17744","17744","Narrawong Store/Princes Hwy","-38.25414534","141.70428993","https://transport.vic.gov.au/stop/4159/?utm_source=open_data_click_stop&utm_medium=open_data_stop_click&utm_campaign=open_data_click","","","0","Level 0",""
"17745","17745","Henty Street Bus Interchange/Henty St","-38.34603736","141.60274384","https://transport.vic.gov.au/stop/4160/?utm_source=open_data_click_stop&utm_medium=open_data_stop_click&utm_campaign=open_data_click","","","0","Level 0",""
"17746","17746","Lindsay St/Princes Hwy","-38.13295155","141.62979346","https://transport.vic.gov.au/stop/4161/?utm_source=open_data_click_stop&utm_medium=open_data_stop_click&utm_campaign=open_data_click","","","0","Level 0",""
"17748","17748","General Store/Greenham St","-37.92223511","141.27688693","https://transport.vic.gov.au/stop/4162/?utm_source=open_data_click_stop&utm_medium=open_data_stop_click&utm_campaign=open_data_click","","","0","Level 0",""
"17749","17749","Tourist Information Centre/Jubilee Hwy East","-37.82571763","140.78700232","https://transport.vic.gov.au/stop/4163/?utm_source=open_data_click_stop&utm_medium=open_data_stop_click&utm_campaign=open_data_click","","","0","Level 0",""
"17750","17750","Wathen St/Henty St","-37.58581675","141.40253544","https://transport.vic.gov.au/stop/4117/?utm_source=open_data_click_stop&utm_medium=open_data_stop_click&utm_campaign=open_data_click","","","0","Level 0",""
"17751","17751","Wathen St/Henty St","-37.58590352","141.40284567","https://transport.vic.gov.au/stop/4117/?utm_source=open_data_click_stop&utm_medium=open_data_stop_click&utm_campaign=open_data_click","","","0","Level 0",""
"17752","17752","Whyte St/Henty St","-37.59836391","141.69355916","https://transport.vic.gov.au/stop/4126/?utm_source=open_data_click_stop&utm_medium=open_data_stop_click&utm_campaign=open_data_click","","","0","Level 0",""
"17753","17753","Hamilton Station/Station St","-37.74660031","142.02827004","https://transport.vic.gov.au/stop/4125/?utm_source=open_data_click_stop&utm_medium=open_data_stop_click&utm_campaign=open_data_click","","","0","Level 0",""
"17754","17754","Information Centre/Glenelg Hwy","-37.64946351","142.34256240","https://transport.vic.gov.au/stop/4130/?utm_source=open_data_click_stop&utm_medium=open_data_stop_click&utm_campaign=open_data_click","","","0","Level 0",""
"17755","17755","Information Centre/Glenelg Hwy","-37.64948103","142.34254998","https://transport.vic.gov.au/stop/4130/?utm_source=open_data_click_stop&utm_medium=open_data_stop_click&utm_campaign=open_data_click","","","0","Level 0",""
"17756","17756","Cameron St/Glenelg Hwy","-37.63660607","142.54677544","https://transport.vic.gov.au/stop/4116/?utm_source=open_data_click_stop&utm_medium=open_data_stop_click&utm_campaign=open_data_click","","","0","Level 0",""
"17757","17757","Cameron St/Glenelg Hwy","-37.63690431","142.54704074","https://transport.vic.gov.au/stop/4116/?utm_source=open_data_click_stop&utm_medium=open_data_stop_click&utm_campaign=open_data_click","","","0","Level 0",""
"17760","17760","CFA Station/Glenelg Hwy","-37.69039635","142.72293732","https://transport.vic.gov.au/stop/4133/?utm_source=open_data_click_stop&utm_medium=open_data_stop_click&utm_campaign=open_data_click","","","0","Level 0",""
"17761","17761","CFA Station/Glenelg Hwy","-37.69090421","142.72303277","https://transport.vic.gov.au/stop/4133/?utm_source=open_data_click_stop&utm_medium=open_data_stop_click&utm_campaign=open_data_click","","","0","Level 0",""
"17762","17762","Information Centre/Glenelg Hwy","-37.71213284","142.84062022","https://transport.vic.gov.au/stop/4129/?utm_source=open_data_click_stop&utm_medium=open_data_stop_click&utm_campaign=open_data_click","","","0","Level 0",""
"17763","17763","Information Centre/Glenelg Hwy","-37.71239812","142.84048065","https://transport.vic.gov.au/stop/4129/?utm_source=open_data_click_stop&utm_medium=open_data_stop_click&utm_campaign=open_data_click","","","0","Level 0",""
"17764","17764","General Store/Glenelg Hwy","-37.68915072","142.96708791","https://transport.vic.gov.au/stop/4132/?utm_source=open_data_click_stop&utm_medium=open_data_stop_click&utm_campaign=open_data_click","","","0","Level 0",""
"17765","17765","General Store/Glenelg Hwy","-37.68927380","142.96726260","https://transport.vic.gov.au/stop/4132/?utm_source=open_data_click_stop&utm_medium=open_data_stop_click&utm_campaign=open_data_click","","","0","Level 0",""
"17766","17766","Milk Bar/Glenelg Hwy","-37.67944153","143.06267021","https://transport.vic.gov.au/stop/4131/?utm_source=open_data_click_stop&utm_medium=open_data_stop_click&utm_campaign=open_data_click","","","0","Level 0",""
"17767","17767","Milk Bar/Glenelg Hwy","-37.67964040","143.06242167","https://transport.vic.gov.au/stop/4131/?utm_source=open_data_click_stop&utm_medium=open_data_stop_click&utm_campaign=open_data_click","","","0","Level 0",""
"17768","17768","BP Roadhouse/Glenelg Hwy","-37.68524094","143.36143263","https://transport.vic.gov.au/stop/4227/?utm_source=open_data_click_stop&utm_medium=open_data_stop_click&utm_campaign=open_data_click","","","0","Level 0",""
"17769","17769","General Store/Glenelg Hwy","-37.68786073","143.56168776","https://transport.vic.gov.au/stop/4235/?utm_source=open_data_click_stop&utm_medium=open_data_stop_click&utm_campaign=open_data_click","","","0","Level 0",""
"17770","17770","General Store/Glenelg Hwy","-37.68801262","143.56195282","https://transport.vic.gov.au/stop/4235/?utm_source=open_data_click_stop&utm_medium=open_data_stop_click&utm_campaign=open_data_click","","","0","Level 0",""
"17771","17771","Drummond St/Glenelg Hwy","-37.66668343","143.65570423","https://transport.vic.gov.au/stop/4233/?utm_source=open_data_click_stop&utm_medium=open_data_stop_click&utm_campaign=open_data_click","","","0","Level 0",""
"17772","17772","Drummond St/Glenelg Hwy","-37.66817903","143.65507034","https://transport.vic.gov.au/stop/4233/?utm_source=open_data_click_stop&utm_medium=open_data_stop_click&utm_campaign=open_data_click","","","0","Level 0",""
"17773","17773","Loader St/Glenelg Hwy","-37.64497776","143.68433658","https://transport.vic.gov.au/stop/4240/?utm_source=open_data_click_stop&utm_medium=open_data_stop_click&utm_campaign=open_data_click","","","0","Level 0",""
"17774","17774","Loader St/Glenelg Hwy","-37.64502753","143.68450433","https://transport.vic.gov.au/stop/4240/?utm_source=open_data_click_stop&utm_medium=open_data_stop_click&utm_campaign=open_data_click","","","0","Level 0",""
"17776","17776","Jetty Rd/Princes Hwy","-37.87446202","148.00773284","https://transport.vic.gov.au/stop/4588/?utm_source=open_data_click_stop&utm_medium=open_data_stop_click&utm_campaign=open_data_click","","","0","Level 0",""
"17778","17778","Barracouta Rd/Lake Tyers Rd","-37.86186539","148.07067703","https://transport.vic.gov.au/stop/4262/?utm_source=open_data_click_stop&utm_medium=open_data_stop_click&utm_campaign=open_data_click","","","0","Level 0",""
"17780","17780","Boisdale St/Johnson St","-37.97040006","146.98236418","https://transport.vic.gov.au/stop/4506/?utm_source=open_data_click_stop&utm_medium=open_data_stop_click&utm_campaign=open_data_click","","","0","Level 0",""
"17782","17782","Pearson St/Johnson St","-37.96637901","146.97530665","https://transport.vic.gov.au/stop/4507/?utm_source=open_data_click_stop&utm_medium=open_data_stop_click&utm_campaign=open_data_click","","","0","Level 0",""
"17784","17784","General Store/Traralgon-Maffra Rd","-37.96270851","146.89165748","https://transport.vic.gov.au/stop/4378/?utm_source=open_data_click_stop&utm_medium=open_data_stop_click&utm_campaign=open_data_click","","","0","Level 0",""
"17786","17786","Gordon St/Mary St","-37.97931920","146.79123688","https://transport.vic.gov.au/stop/4509/?utm_source=open_data_click_stop&utm_medium=open_data_stop_click&utm_campaign=open_data_click","","","0","Level 0",""
"17788","17788","Primary School/Harbeck St","-37.98258841","146.78486220","https://transport.vic.gov.au/stop/4510/?utm_source=open_data_click_stop&utm_medium=open_data_stop_click&utm_campaign=open_data_click","","","0","Level 0",""
"17790","17790","McEwan Rd/Traralgon - Maffra Rd","-38.01404420","146.69549109","https://transport.vic.gov.au/stop/4177/?utm_source=open_data_click_stop&utm_medium=open_data_stop_click&utm_campaign=open_data_click","","","0","Level 0",""
"17791","17791","Victoria St/Cowen St","-38.05992929","146.62415924","https://transport.vic.gov.au/stop/4512/?utm_source=open_data_click_stop&utm_medium=open_data_stop_click&utm_campaign=open_data_click","","","0","Level 0",""
"17792","17792","Opp Glengarry Hotel/Main St","-38.12547714","146.57354279","https://transport.vic.gov.au/stop/4573/?utm_source=open_data_click_stop&utm_medium=open_data_stop_click&utm_campaign=open_data_click","","","0","Level 0",""
"17795","17795","Trawalla PS/Western Hwy","-37.43685186","143.46984785","https://transport.vic.gov.au/stop/4592/?utm_source=open_data_click_stop&utm_medium=open_data_stop_click&utm_campaign=open_data_click","","","0","Level 0",""
"17797","17797","Beaufort Station/Pratt St ","-37.42777151","143.38238550","https://transport.vic.gov.au/stop/4674/?utm_source=open_data_click_stop&utm_medium=open_data_stop_click&utm_campaign=open_data_click","","","0","",""
"17798","17798","Hotel/Western Hwy","-37.36620715","143.17213488","https://transport.vic.gov.au/stop/4145/?utm_source=open_data_click_stop&utm_medium=open_data_stop_click&utm_campaign=open_data_click","","","0","Level 0",""
"17799","17799","Ararat Railway Station/High St ","-37.28243901","142.93691236","https://transport.vic.gov.au/stop/34091/?utm_source=open_data_click_stop&utm_medium=open_data_stop_click&utm_campaign=open_data_click","","","0","",""
"17801","17801","Cuibitt St/Western Hwy","-37.15149506","142.85345134","https://transport.vic.gov.au/stop/4574/?utm_source=open_data_click_stop&utm_medium=open_data_stop_click&utm_campaign=open_data_click","","","0","Level 0",""
"17802","17802","Cubitt St/Western Hwy","-37.15193944","142.85482246","https://transport.vic.gov.au/stop/4105/?utm_source=open_data_click_stop&utm_medium=open_data_stop_click&utm_campaign=open_data_click","","","0","Level 0",""
"17803","17803","Stawell Station/Napier St ","-37.05925865","142.77354844","https://transport.vic.gov.au/stop/4675/?utm_source=open_data_click_stop&utm_medium=open_data_stop_click&utm_campaign=open_data_click","","","0","",""
"17804","17804","Former Pleasant Creek Courthouse/Western Hwy","-37.06363568","142.76344778","https://transport.vic.gov.au/stop/4593/?utm_source=open_data_click_stop&utm_medium=open_data_stop_click&utm_campaign=open_data_click","","","0","Level 0",""
"17806","17806","Information Centre/Grampians Rd","-37.14062297","142.51897838","https://transport.vic.gov.au/stop/4539/?utm_source=open_data_click_stop&utm_medium=open_data_stop_click&utm_campaign=open_data_click","","","0","Level 0",""
"17807","17807","Wills St/Edwards St","-36.90666687","142.66395343","https://transport.vic.gov.au/stop/4146/?utm_source=open_data_click_stop&utm_medium=open_data_stop_click&utm_campaign=open_data_click","","","0","Level 0",""
"17808","17808","Wills St/Edwards St","-36.90678654","142.66328488","https://transport.vic.gov.au/stop/4146/?utm_source=open_data_click_stop&utm_medium=open_data_stop_click&utm_campaign=open_data_click","","","0","Level 0",""
"17809","17809","McDonald St/Marma St","-36.62011582","142.47022867","https://transport.vic.gov.au/stop/4079/?utm_source=open_data_click_stop&utm_medium=open_data_stop_click&utm_campaign=open_data_click","","","0","Level 0",""
"17810","17810","Walter St/Cromie St","-36.63140682","142.63140943","https://transport.vic.gov.au/stop/4070/?utm_source=open_data_click_stop&utm_medium=open_data_stop_click&utm_campaign=open_data_click","","","0","Level 0",""
"17811","17811","Walter St/Cromie St","-36.63127847","142.63085790","https://transport.vic.gov.au/stop/4070/?utm_source=open_data_click_stop&utm_medium=open_data_stop_click&utm_campaign=open_data_click","","","0","Level 0",""
"17812","17812","Main St/Church St","-36.46029056","142.58737670","https://transport.vic.gov.au/stop/4138/?utm_source=open_data_click_stop&utm_medium=open_data_stop_click&utm_campaign=open_data_click","","","0","Level 0",""
"17813","17813","Main St/Church St","-36.46002462","142.58749215","https://transport.vic.gov.au/stop/4138/?utm_source=open_data_click_stop&utm_medium=open_data_stop_click&utm_campaign=open_data_click","","","0","Level 0",""
"17814","17814","Sheep Hills Rd/Stawell-Warracknabeal Rd","-36.38771552","142.53120961","https://transport.vic.gov.au/stop/4142/?utm_source=open_data_click_stop&utm_medium=open_data_stop_click&utm_campaign=open_data_click","","","0","Level 0",""
"17815","17815","Sheep Hills Rd/Stawell-Warracknabeal Rd","-36.38757588","142.53132902","https://transport.vic.gov.au/stop/4142/?utm_source=open_data_click_stop&utm_medium=open_data_stop_click&utm_campaign=open_data_click","","","0","Level 0",""
"17816","17816","Scott St/Woolcock St","-36.25091077","142.39533268","https://transport.vic.gov.au/stop/4141/?utm_source=open_data_click_stop&utm_medium=open_data_stop_click&utm_campaign=open_data_click","","","0","Level 0",""
"17817","17817","Swann St/Henty Hwy","-36.07674229","142.42104076","https://transport.vic.gov.au/stop/4144/?utm_source=open_data_click_stop&utm_medium=open_data_stop_click&utm_campaign=open_data_click","","","0","Level 0",""
"17818","17818","Swann St/Henty Hwy","-36.07649913","142.42127679","https://transport.vic.gov.au/stop/4144/?utm_source=open_data_click_stop&utm_medium=open_data_stop_click&utm_campaign=open_data_click","","","0","Level 0",""
"17819","17819","Galaquil West Rd/Henty Hwy","-35.99533033","142.40769462","https://transport.vic.gov.au/stop/4136/?utm_source=open_data_click_stop&utm_medium=open_data_stop_click&utm_campaign=open_data_click","","","0","Level 0",""
"17820","17820","Galaquil West Rd/Henty Hwy","-35.99502172","142.40786772","https://transport.vic.gov.au/stop/4136/?utm_source=open_data_click_stop&utm_medium=open_data_stop_click&utm_campaign=open_data_click","","","0","Level 0",""
"17821","17821","Hogans Newsagent/Phillips St","-35.93939851","142.42090759","https://transport.vic.gov.au/stop/4137/?utm_source=open_data_click_stop&utm_medium=open_data_stop_click&utm_campaign=open_data_click","","","0","Level 0",""
"17823","17823","Rosebery Station/Henty Hwy","-35.83506009","142.42254316","https://transport.vic.gov.au/stop/4140/?utm_source=open_data_click_stop&utm_medium=open_data_stop_click&utm_campaign=open_data_click","","","0","Level 0",""
"17824","17824","Rosebery Station/Henty Hwy","-35.83498679","142.42274648","https://transport.vic.gov.au/stop/4140/?utm_source=open_data_click_stop&utm_medium=open_data_stop_click&utm_campaign=open_data_click","","","0","Level 0",""
"17825","17825","Austin St/Henty Hwy","-35.72658891","142.36436158","https://transport.vic.gov.au/stop/4134/?utm_source=open_data_click_stop&utm_medium=open_data_stop_click&utm_campaign=open_data_click","","","0","Level 0",""
"17826","17826","Austin St/Henty Hwy","-35.72697013","142.36467082","https://transport.vic.gov.au/stop/4134/?utm_source=open_data_click_stop&utm_medium=open_data_stop_click&utm_campaign=open_data_click","","","0","Level 0",""
"17827","17827","Coach Terminal/24 Roberts Ave","-36.71419125","142.20051873","https://transport.vic.gov.au/stop/4080/?utm_source=open_data_click_stop&utm_medium=open_data_stop_click&utm_campaign=open_data_click","","","0","Level 0",""
"17828","17828","Fisher St/Western Hwy","-36.58469184","142.11832723","https://transport.vic.gov.au/stop/4106/?utm_source=open_data_click_stop&utm_medium=open_data_stop_click&utm_campaign=open_data_click","","","0","Level 0",""
"17829","17829","Fisher St/Western Hwy","-36.58476720","142.11818847","https://transport.vic.gov.au/stop/4106/?utm_source=open_data_click_stop&utm_medium=open_data_stop_click&utm_campaign=open_data_click","","","0","Level 0",""
"17831","17831","Car Park Rear Toilet Block/Lloyd St","-36.45363054","142.02663605","https://transport.vic.gov.au/stop/4094/?utm_source=open_data_click_stop&utm_medium=open_data_stop_click&utm_campaign=open_data_click","","","0","Level 0",""
"17832","17832","Hotel/Western Hwy","-36.36301082","141.79429800","https://transport.vic.gov.au/stop/4226/?utm_source=open_data_click_stop&utm_medium=open_data_stop_click&utm_campaign=open_data_click","","","0","Level 0",""
"17833","17833","Western Hwy","-36.36282179","141.79429950","https://transport.vic.gov.au/stop/4300/?utm_source=open_data_click_stop&utm_medium=open_data_stop_click&utm_campaign=open_data_click","","","0","Level 0",""
"17834","17834","Information Centre/Western Hwy","-36.33434492","141.64902610","https://transport.vic.gov.au/stop/4082/?utm_source=open_data_click_stop&utm_medium=open_data_stop_click&utm_campaign=open_data_click","","","0","Level 0",""
"17835","17835","Information Centre/Western Hwy","-36.33391706","141.64912222","https://transport.vic.gov.au/stop/4082/?utm_source=open_data_click_stop&utm_medium=open_data_stop_click&utm_campaign=open_data_click","","","0","Level 0",""
"17836","17836","Kaniva Community Roadhouse/Western Hwy","-36.37905055","141.24071238","https://transport.vic.gov.au/stop/4083/?utm_source=open_data_click_stop&utm_medium=open_data_stop_click&utm_campaign=open_data_click","","","0","Level 0",""
"17837","17837","Kaniva Community Roadhouse/Western Hwy","-36.37883167","141.24083990","https://transport.vic.gov.au/stop/4083/?utm_source=open_data_click_stop&utm_medium=open_data_stop_click&utm_campaign=open_data_click","","","0","Level 0",""
"17840","17840","Caltex Station/Calder Hwy","-35.06938737","142.31875431","https://transport.vic.gov.au/stop/4040/?utm_source=open_data_click_stop&utm_medium=open_data_stop_click&utm_campaign=open_data_click","","","0","Level 0",""
"17841","17841","Caltex Station/Calder Hwy","-35.06959650","142.31903814","https://transport.vic.gov.au/stop/4040/?utm_source=open_data_click_stop&utm_medium=open_data_stop_click&utm_campaign=open_data_click","","","0","Level 0",""
"17963","17963","Miners Rest Hotel/138 McKenzie St","-38.59575151","145.59214542","https://transport.vic.gov.au/stop/4366/?utm_source=open_data_click_stop&utm_medium=open_data_stop_click&utm_campaign=open_data_click","","","0","Level 0",""
"17967","17967","Seaward Dr/Cape Paterson Rd","-38.66747582","145.62115505","https://transport.vic.gov.au/stop/4473/?utm_source=open_data_click_stop&utm_medium=open_data_stop_click&utm_campaign=open_data_click","","","0","Level 0",""
"17968","17968","Seaward Dr/Cape Paterson Rd","-38.66777096","145.62096548","https://transport.vic.gov.au/stop/4473/?utm_source=open_data_click_stop&utm_medium=open_data_stop_click&utm_campaign=open_data_click","","","0","Level 0",""
"17969","17969","Ramsay Bvd/The Esplanade","-38.63460583","145.72967732","https://transport.vic.gov.au/stop/4474/?utm_source=open_data_click_stop&utm_medium=open_data_stop_click&utm_campaign=open_data_click","","","0","Level 0",""
"17970","17970","Gurdies - St Helier Rd/Bass Hwy","-38.37153393","145.56305307","https://transport.vic.gov.au/stop/4475/?utm_source=open_data_click_stop&utm_medium=open_data_stop_click&utm_campaign=open_data_click","","","0","Level 0",""
"17971","17971","BP Store/Calder Hwy","-34.76152836","142.27931020","https://transport.vic.gov.au/stop/4204/?utm_source=open_data_click_stop&utm_medium=open_data_stop_click&utm_campaign=open_data_click","","","0","Level 0",""
"17973","17973","Red Cliffs Post Office/Indi Ave ","-34.30723305","142.18757333","https://transport.vic.gov.au/stop/4208/?utm_source=open_data_click_stop&utm_medium=open_data_stop_click&utm_campaign=open_data_click","","","0","Level 0",""
"17974","17974","Hassell St/Calder Hwy","-34.23628103","142.17189722","https://transport.vic.gov.au/stop/4203/?utm_source=open_data_click_stop&utm_medium=open_data_stop_click&utm_campaign=open_data_click","","","0","Level 0",""
"17975","17975","Hassell St/Calder Hwy","-34.23567089","142.17081515","https://transport.vic.gov.au/stop/4203/?utm_source=open_data_click_stop&utm_medium=open_data_stop_click&utm_campaign=open_data_click","","","0","Level 0",""
"17976","17976","Mildura Station/Seventh St ","-34.18210554","142.16323421","https://transport.vic.gov.au/stop/4402/?utm_source=open_data_click_stop&utm_medium=open_data_stop_click&utm_campaign=open_data_click","","","0","",""
"17977","17977","General Store/Sunraysia Hwy","-35.34531466","142.42480251","https://transport.vic.gov.au/stop/4038/?utm_source=open_data_click_stop&utm_medium=open_data_stop_click&utm_campaign=open_data_click","","","0","Level 0",""
"17978","17978","General Store/Sunraysia Hwy","-35.34498360","142.42462333","https://transport.vic.gov.au/stop/4038/?utm_source=open_data_click_stop&utm_medium=open_data_stop_click&utm_campaign=open_data_click","","","0","Level 0",""
"17979","17979","Service Station/Sunraysia Hwy","-35.40194436","142.43883730","https://transport.vic.gov.au/stop/4216/?utm_source=open_data_click_stop&utm_medium=open_data_stop_click&utm_campaign=open_data_click","","","0","Level 0",""
"17980","17980","Service Station/Sunraysia Hwy","-35.40178450","142.43865930","https://transport.vic.gov.au/stop/4216/?utm_source=open_data_click_stop&utm_medium=open_data_stop_click&utm_campaign=open_data_click","","","0","Level 0",""
"17981","17981","CFA/Sunraysia Hwy","-35.45704442","142.47111657","https://transport.vic.gov.au/stop/4143/?utm_source=open_data_click_stop&utm_medium=open_data_stop_click&utm_campaign=open_data_click","","","0","Level 0",""
"17982","17982","CFA/Sunraysia Hwy","-35.45696508","142.47092287","https://transport.vic.gov.au/stop/4143/?utm_source=open_data_click_stop&utm_medium=open_data_stop_click&utm_campaign=open_data_click","","","0","Level 0",""
"17983","17983","Boree St/Sunraysia Hwy","-35.60788094","142.57925681","https://transport.vic.gov.au/stop/4135/?utm_source=open_data_click_stop&utm_medium=open_data_stop_click&utm_campaign=open_data_click","","","0","Level 0",""
"17984","17984","Boree St/Sunraysia Hwy","-35.60784620","142.57929181","https://transport.vic.gov.au/stop/4135/?utm_source=open_data_click_stop&utm_medium=open_data_stop_click&utm_campaign=open_data_click","","","0","Level 0",""
"17985","17985","Woomelang Station/Sunraysia Hwy","-35.68247018","142.66442536","https://transport.vic.gov.au/stop/4218/?utm_source=open_data_click_stop&utm_medium=open_data_stop_click&utm_campaign=open_data_click","","","0","Level 0",""
"17986","17986","Woomelang Station/Sunraysia Hwy","-35.68255571","142.66429927","https://transport.vic.gov.au/stop/4218/?utm_source=open_data_click_stop&utm_medium=open_data_stop_click&utm_campaign=open_data_click","","","0","Level 0",""
"17987","17987","Memorial Park/Cumming Ave","-35.98126529","142.91791241","https://transport.vic.gov.au/stop/4202/?utm_source=open_data_click_stop&utm_medium=open_data_stop_click&utm_campaign=open_data_click","","","0","Level 0",""
"17988","17988","Hotel/Sunraysia Hwy","-36.14758952","142.85909136","https://transport.vic.gov.au/stop/4206/?utm_source=open_data_click_stop&utm_medium=open_data_stop_click&utm_campaign=open_data_click","","","0","Level 0",""
"17989","17989","Post Office/Sunraysia Hwy","-36.37066690","142.98266729","https://transport.vic.gov.au/stop/4211/?utm_source=open_data_click_stop&utm_medium=open_data_stop_click&utm_campaign=open_data_click","","","0","Level 0",""
"17990","17990","Post Office/Sunraysia Hwy","-36.37066690","142.98239994","https://transport.vic.gov.au/stop/4211/?utm_source=open_data_click_stop&utm_medium=open_data_stop_click&utm_campaign=open_data_click","","","0","Level 0",""
"17991","17991","Dundas St/Market St","-36.61529496","143.25862018","https://transport.vic.gov.au/stop/4047/?utm_source=open_data_click_stop&utm_medium=open_data_stop_click&utm_campaign=open_data_click","","","0","Level 0",""
"17992","17992","Dundas St/Market St","-36.61532919","143.25856264","https://transport.vic.gov.au/stop/4047/?utm_source=open_data_click_stop&utm_medium=open_data_stop_click&utm_campaign=open_data_click","","","0","Level 0",""
"17993","17993","Bull St/Broadway","-36.85835177","143.73078841","https://transport.vic.gov.au/stop/4039/?utm_source=open_data_click_stop&utm_medium=open_data_stop_click&utm_campaign=open_data_click","","","0","Level 0",""
"17994","17994","Bull St/Broadway","-36.85839091","143.73057370","https://transport.vic.gov.au/stop/4039/?utm_source=open_data_click_stop&utm_medium=open_data_stop_click&utm_campaign=open_data_click","","","0","Level 0",""
"17995","17995","Holyrood St/Park Rd","-37.03843477","143.74129489","https://transport.vic.gov.au/stop/4207/?utm_source=open_data_click_stop&utm_medium=open_data_stop_click&utm_campaign=open_data_click","","","0","Level 0",""
"17996","17996","Holyrood St/Park Rd","-37.03823740","143.74132581","https://transport.vic.gov.au/stop/4207/?utm_source=open_data_click_stop&utm_medium=open_data_stop_click&utm_campaign=open_data_click","","","0","Level 0",""
"17998","17998","Napier St/Derby St","-37.05401429","143.72954361","https://transport.vic.gov.au/stop/4213/?utm_source=open_data_click_stop&utm_medium=open_data_stop_click&utm_campaign=open_data_click","","","0","Level 0",""
"17999","17999","Napier St/Derby St","-37.05392149","143.72977243","https://transport.vic.gov.au/stop/4213/?utm_source=open_data_click_stop&utm_medium=open_data_stop_click&utm_campaign=open_data_click","","","0","Level 0",""
"18","18","Melton Station/29 Staughton St ","-37.70338073","144.57195421","https://transport.vic.gov.au/stop/4642/?utm_source=open_data_click_stop&utm_medium=open_data_stop_click&utm_campaign=open_data_click","","","0","",""
"18004","18004","Butcher Shop/Service St","-37.29433048","143.78693716","https://transport.vic.gov.au/stop/4200/?utm_source=open_data_click_stop&utm_medium=open_data_stop_click&utm_campaign=open_data_click","","","0","Level 0",""
"18005","18005","Butcher Shop/Service St","-37.29429099","143.78714184","https://transport.vic.gov.au/stop/4200/?utm_source=open_data_click_stop&utm_medium=open_data_stop_click&utm_campaign=open_data_click","","","0","Level 0",""
"18671","18671","east of Pechell St/High St","-37.21116216","145.42398128","https://transport.vic.gov.au/stop/4236/?utm_source=open_data_click_stop&utm_medium=open_data_stop_click&utm_campaign=open_data_click","","","0","Level 0",""
"18672","18672","General Store/Goulburn Valley Hwy","-37.16730950","145.53905057","https://transport.vic.gov.au/stop/4548/?utm_source=open_data_click_stop&utm_medium=open_data_stop_click&utm_campaign=open_data_click","","","0","Level 0",""
"18673","18673","General Store/Goulburn Valley Hwy","-37.16734693","145.53916247","https://transport.vic.gov.au/stop/4548/?utm_source=open_data_click_stop&utm_medium=open_data_stop_click&utm_campaign=open_data_click","","","0","Level 0",""
"18674","18674","Wrights St/Maroondah Hwy","-37.10118546","145.61707799","https://transport.vic.gov.au/stop/4413/?utm_source=open_data_click_stop&utm_medium=open_data_stop_click&utm_campaign=open_data_click","","","0","Level 0",""
"18675","18675","Wrights St/Maroondah Hwy","-37.10128734","145.61731245","https://transport.vic.gov.au/stop/4413/?utm_source=open_data_click_stop&utm_medium=open_data_stop_click&utm_campaign=open_data_click","","","0","Level 0",""
"18676","18676","Euroa - Mansfield Rd/Maroondah Hwy","-36.97732057","145.71083042","https://transport.vic.gov.au/stop/4579/?utm_source=open_data_click_stop&utm_medium=open_data_stop_click&utm_campaign=open_data_click","","","0","Level 0",""
"18677","18677","Euroa-Mansfield Rd/Maroondah Hwy","-36.97759824","145.71066844","https://transport.vic.gov.au/stop/4347/?utm_source=open_data_click_stop&utm_medium=open_data_stop_click&utm_campaign=open_data_click","","","0","Level 0",""
"18678","18678","Woolshed Rd/Maroondah Hwy","-37.02224896","145.80682733","https://transport.vic.gov.au/stop/4412/?utm_source=open_data_click_stop&utm_medium=open_data_stop_click&utm_campaign=open_data_click","","","0","Level 0",""
