stop_id,stop_code,stop_name,stop_lat,stop_lon,stop_url,location_type,parent_station,wheelchair_boarding,level_id,platform_code
"13626","13626","Lakeside Bvd/Princes Hwy","-38.06234821","145.45670895","https://transport.vic.gov.au/stop/14661/?utm_source=open_data_click_stop&utm_medium=open_data_stop_click&utm_campaign=open_data_click","","","0","Level 0",""
"13763","13763","High St/Main Rd","-37.27811812","144.73660672","https://transport.vic.gov.au/stop/4331/?utm_source=open_data_click_stop&utm_medium=open_data_stop_click&utm_campaign=open_data_click","","","0","Level 0",""
"13764","13764","High St/Main Rd","-37.27804994","144.73681176","https://transport.vic.gov.au/stop/4331/?utm_source=open_data_click_stop&utm_medium=open_data_stop_click&utm_campaign=open_data_click","","","0","Level 0",""
"13765","13765","Romsey Community Hub/Main St","-37.35008997","144.74281161","https://transport.vic.gov.au/stop/4338/?utm_source=open_data_click_stop&utm_medium=open_data_stop_click&utm_campaign=open_data_click","","","0","Level 0",""
"13766","13766","Romsey Community Hub/Main St","-37.35012130","144.74303644","https://transport.vic.gov.au/stop/4338/?utm_source=open_data_click_stop&utm_medium=open_data_stop_click&utm_campaign=open_data_click","","","0","Level 0",""
"15096","15096","Jennings St/Northern Hwy","-36.92740598","144.71185196","https://transport.vic.gov.au/stop/4482/?utm_source=open_data_click_stop&utm_medium=open_data_stop_click&utm_campaign=open_data_click","","","0","Level 0",""
"15097","15097","Jennings St/Northern Hwy","-36.92746867","144.71229911","https://transport.vic.gov.au/stop/4482/?utm_source=open_data_click_stop&utm_medium=open_data_stop_click&utm_campaign=open_data_click","","","0","Level 0",""
"15109","15109","Murray River Council/Cobb Hwy","-36.11428466","144.75611191","https://transport.vic.gov.au/stop/4307/?utm_source=open_data_click_stop&utm_medium=open_data_stop_click&utm_campaign=open_data_click","","","0","Level 0",""
"15113","15113","Thompson St/Main St","-35.64357276","144.13119650","https://transport.vic.gov.au/stop/4336/?utm_source=open_data_click_stop&utm_medium=open_data_stop_click&utm_campaign=open_data_click","","","0","Level 0",""
"15114","15114","King Albert Ave/Leitchville Rd","-35.90363714","144.30111531","https://transport.vic.gov.au/stop/4332/?utm_source=open_data_click_stop&utm_medium=open_data_stop_click&utm_campaign=open_data_click","","","0","Level 0",""
"15115","15115","Newsagent/Murray Valley Hwy","-35.95628939","144.36879683","https://transport.vic.gov.au/stop/4291/?utm_source=open_data_click_stop&utm_medium=open_data_stop_click&utm_campaign=open_data_click","","","0","Level 0",""
"15116","15116","Newsagent/Murray Valley Hwy","-35.95598292","144.36879592","https://transport.vic.gov.au/stop/4291/?utm_source=open_data_click_stop&utm_medium=open_data_stop_click&utm_campaign=open_data_click","","","0","Level 0",""
"15117","15117","General Store/Murray Valley Hwy","-36.02893281","144.51656586","https://transport.vic.gov.au/stop/4334/?utm_source=open_data_click_stop&utm_medium=open_data_stop_click&utm_campaign=open_data_click","","","0","Level 0",""
"15122","15122","Transit Centre/Union St","-36.31438202","145.04752566","https://transport.vic.gov.au/stop/4293/?utm_source=open_data_click_stop&utm_medium=open_data_stop_click&utm_campaign=open_data_click","","","0","Level 0",""
"15123","15123","Mill St/McLennan St","-36.39407805","145.36133151","https://transport.vic.gov.au/stop/4110/?utm_source=open_data_click_stop&utm_medium=open_data_stop_click&utm_campaign=open_data_click","","","0","Level 0",""
"15126","15126","Shepparton Station/Purcell St ","-36.38381597","145.40634090","https://transport.vic.gov.au/stop/4653/?utm_source=open_data_click_stop&utm_medium=open_data_stop_click&utm_campaign=open_data_click","","","0","",""
"15127","15127","Fraser St/Wyndham St","-36.37983885","145.39946584","https://transport.vic.gov.au/stop/4462/?utm_source=open_data_click_stop&utm_medium=open_data_stop_click&utm_campaign=open_data_click","","","0","Level 0",""
"15128","15128","Fraser St/Wyndham St","-36.37950029","145.39976262","https://transport.vic.gov.au/stop/4462/?utm_source=open_data_click_stop&utm_medium=open_data_stop_click&utm_campaign=open_data_click","","","0","Level 0",""
"15130","15130","Barmah Hotel/Maloney St","-36.01725216","144.95780731","https://transport.vic.gov.au/stop/4343/?utm_source=open_data_click_stop&utm_medium=open_data_stop_click&utm_campaign=open_data_click","","","0","Level 0",""
"15137","15137","Milk Bar/Station St","-36.39707478","144.98085811","https://transport.vic.gov.au/stop/4341/?utm_source=open_data_click_stop&utm_medium=open_data_stop_click&utm_campaign=open_data_click","","","0","Level 0",""
"15139","15139","Birdwood Ave/Brundenell St","-36.44571461","144.98258788","https://transport.vic.gov.au/stop/4399/?utm_source=open_data_click_stop&utm_medium=open_data_stop_click&utm_campaign=open_data_click","","","0","Level 0",""
"15140","15140","Birdwood Ave/Brundenell St","-36.44595542","144.98243661","https://transport.vic.gov.au/stop/4399/?utm_source=open_data_click_stop&utm_medium=open_data_stop_click&utm_campaign=open_data_click","","","0","Level 0",""
"15143","15143","High St/Moora Rd","-36.58566655","145.01472681","https://transport.vic.gov.au/stop/4120/?utm_source=open_data_click_stop&utm_medium=open_data_stop_click&utm_campaign=open_data_click","","","0","Level 0",""
"1613","1613","Webster St/Dunlop St","-38.08069184","142.80477363","https://transport.vic.gov.au/stop/4242/?utm_source=open_data_click_stop&utm_medium=open_data_stop_click&utm_campaign=open_data_click","","","0","Level 0",""
"16238","16238","Bendigo Station/Railway Pl","-36.76592841","144.28210371","https://transport.vic.gov.au/stop/4071/?utm_source=open_data_click_stop&utm_medium=open_data_stop_click&utm_campaign=open_data_click","","","0","Level 0","Bay 1"
"16245","16245","Marong/Calder Hwy ","-36.73550392","144.13205842","https://transport.vic.gov.au/stop/4363/?utm_source=open_data_click_stop&utm_medium=open_data_stop_click&utm_campaign=open_data_click","","","0","Level 0",""
"16246","16246","Marong/Calder Hwy ","-36.73543206","144.13244177","https://transport.vic.gov.au/stop/4363/?utm_source=open_data_click_stop&utm_medium=open_data_stop_click&utm_campaign=open_data_click","","","0","Level 0",""
"16247","16247","Bridgewater/Calder Hwy ","-36.60167453","143.94134472","https://transport.vic.gov.au/stop/4364/?utm_source=open_data_click_stop&utm_medium=open_data_stop_click&utm_campaign=open_data_click","","","0","Level 0",""
"16248","16248","Bridgewater/Calder Hwy ","-36.60144718","143.94126430","https://transport.vic.gov.au/stop/4364/?utm_source=open_data_click_stop&utm_medium=open_data_stop_click&utm_campaign=open_data_click","","","0","Level 0",""
"16249","16249","Inglewood/Grant St ","-36.57545394","143.86930160","https://transport.vic.gov.au/stop/4365/?utm_source=open_data_click_stop&utm_medium=open_data_stop_click&utm_campaign=open_data_click","","","0","Level 0",""
"16250","16250","Inglewood/Grant St ","-36.57562799","143.86975263","https://transport.vic.gov.au/stop/4365/?utm_source=open_data_click_stop&utm_medium=open_data_stop_click&utm_campaign=open_data_click","","","0","Level 0",""
"16251","16251","Jacka Park/Chapel St","-36.41815228","143.61360463","https://transport.vic.gov.au/stop/4093/?utm_source=open_data_click_stop&utm_medium=open_data_stop_click&utm_campaign=open_data_click","","","0","Level 0",""
"16253","16253","Travellers Rest/John Curtin Dr","-36.26835214","143.35087668","https://transport.vic.gov.au/stop/4310/?utm_source=open_data_click_stop&utm_medium=open_data_stop_click&utm_campaign=open_data_click","","","0","Level 0",""
"16258","16258","Post Office/Calder Hwy","-36.07693596","143.22576548","https://transport.vic.gov.au/stop/4314/?utm_source=open_data_click_stop&utm_medium=open_data_stop_click&utm_campaign=open_data_click","","","0","Level 0",""
"16264","16264","Newsagency/Best St","-35.50427039","142.84980561","https://transport.vic.gov.au/stop/4309/?utm_source=open_data_click_stop&utm_medium=open_data_stop_click&utm_campaign=open_data_click","","","0","Level 0",""
"16265","16265","McCelland St/Dillon St","-35.46978487","143.26744003","https://transport.vic.gov.au/stop/4367/?utm_source=open_data_click_stop&utm_medium=open_data_stop_click&utm_campaign=open_data_click","","","0","Level 0",""
"16266","16266","McGregor's Garage/Donald - Swan Hill Rd","-35.67077283","143.37532870","https://transport.vic.gov.au/stop/4368/?utm_source=open_data_click_stop&utm_medium=open_data_stop_click&utm_campaign=open_data_click","","","0","Level 0",""
"16297","16297","Traralgon Plaza SC/Franklin St","-38.19442587","146.53842420","https://transport.vic.gov.au/stop/4498/?utm_source=open_data_click_stop&utm_medium=open_data_stop_click&utm_campaign=open_data_click","","","0","Level 0",""
"16301","16301","Gippsland Shopping Centre/Cunninghame St","-38.10722617","147.06351137","https://transport.vic.gov.au/stop/4074/?utm_source=open_data_click_stop&utm_medium=open_data_stop_click&utm_campaign=open_data_click","","","0","Level 0",""
"16302","16302","Sale Station/Pettit Dr ","-38.10322895","147.05469117","https://transport.vic.gov.au/stop/4660/?utm_source=open_data_click_stop&utm_medium=open_data_stop_click&utm_campaign=open_data_click","","","0","",""
"16304","16304","Memorial Park/Princes Hwy","-37.96509257","147.08003285","https://transport.vic.gov.au/stop/4501/?utm_source=open_data_click_stop&utm_medium=open_data_stop_click&utm_campaign=open_data_click","","","0","Level 0",""
"16554","16554","Lookout Rd/Princes Hwy","-37.87924371","147.96189395","https://transport.vic.gov.au/stop/4258/?utm_source=open_data_click_stop&utm_medium=open_data_stop_click&utm_campaign=open_data_click","","","0","Level 0",""
"16556","16556","Post Office/Princes Hwy","-37.88154412","147.98236928","https://transport.vic.gov.au/stop/4259/?utm_source=open_data_click_stop&utm_medium=open_data_stop_click&utm_campaign=open_data_click","","","0","Level 0",""
"16936","16936","Boort/Godfrey St ","-36.11661086","143.72711229","https://transport.vic.gov.au/stop/4371/?utm_source=open_data_click_stop&utm_medium=open_data_stop_click&utm_campaign=open_data_click","","","0","Level 0",""
"16937","16937","Mysia/Boort-Wedderburn Rd ","-36.22994843","143.75534605","https://transport.vic.gov.au/stop/4372/?utm_source=open_data_click_stop&utm_medium=open_data_stop_click&utm_campaign=open_data_click","","","0","Level 0",""
"16938","16938","Boort/Godfrey St ","-36.11668317","143.72712039","https://transport.vic.gov.au/stop/4371/?utm_source=open_data_click_stop&utm_medium=open_data_stop_click&utm_campaign=open_data_click","","","0","Level 0",""
"16955","16955","Kerang Station/Boundary St ","-35.73313736","143.92433606","https://transport.vic.gov.au/stop/4664/?utm_source=open_data_click_stop&utm_medium=open_data_stop_click&utm_campaign=open_data_click","","","0","",""
"16957","16957","Murray Valley Hwy","-35.46381552","143.63653004","https://transport.vic.gov.au/stop/4380/?utm_source=open_data_click_stop&utm_medium=open_data_stop_click&utm_campaign=open_data_click","","","0","Level 0",""
"16958","16958","Murray Valley Hwy","-35.46404648","143.63641027","https://transport.vic.gov.au/stop/4380/?utm_source=open_data_click_stop&utm_medium=open_data_stop_click&utm_campaign=open_data_click","","","0","Level 0",""
"16961","16961","McAlpine Rd/Murray Valley Hwy","-35.17604617","143.37730304","https://transport.vic.gov.au/stop/4178/?utm_source=open_data_click_stop&utm_medium=open_data_stop_click&utm_campaign=open_data_click","","","0","Level 0",""
"16962","16962","McAlpine Rd/Murray Valley Hwy","-35.17551082","143.37748047","https://transport.vic.gov.au/stop/4178/?utm_source=open_data_click_stop&utm_medium=open_data_stop_click&utm_campaign=open_data_click","","","0","Level 0",""
"16969","16969","Robinvale Railway Station/Bromley Rd","-34.58479008","142.77034202","https://transport.vic.gov.au/stop/4296/?utm_source=open_data_click_stop&utm_medium=open_data_stop_click&utm_campaign=open_data_click","","","0","Level 0",""
"17124","17124","General Store/Murray St","-35.05422059","143.31058197","https://transport.vic.gov.au/stop/4383/?utm_source=open_data_click_stop&utm_medium=open_data_stop_click&utm_campaign=open_data_click","","","0","Level 0",""
"17125","17125","General Store/Murray St","-35.05384564","143.31069748","https://transport.vic.gov.au/stop/4383/?utm_source=open_data_click_stop&utm_medium=open_data_stop_click&utm_campaign=open_data_click","","","0","Level 0",""
"17134","17134","Raglan St/Albert St","-37.42450717","143.89431887","https://transport.vic.gov.au/stop/4219/?utm_source=open_data_click_stop&utm_medium=open_data_stop_click&utm_campaign=open_data_click","","","0","Level 0",""
"17135","17135","Raglan St/Albert St","-37.42454674","143.89445281","https://transport.vic.gov.au/stop/4219/?utm_source=open_data_click_stop&utm_medium=open_data_stop_click&utm_campaign=open_data_click","","","0","Level 0",""
"17136","17136","Talbot Town Hall/Ballarat St","-37.17026868","143.70209547","https://transport.vic.gov.au/stop/4223/?utm_source=open_data_click_stop&utm_medium=open_data_stop_click&utm_campaign=open_data_click","","","0","Level 0",""
"17137","17137","Talbot Town Hall/Ballarat St","-37.17027651","143.70237660","https://transport.vic.gov.au/stop/4223/?utm_source=open_data_click_stop&utm_medium=open_data_stop_click&utm_campaign=open_data_click","","","0","Level 0",""
"17138","17138","Carisbrook General Store/Green St","-37.04905498","143.81308822","https://transport.vic.gov.au/stop/4523/?utm_source=open_data_click_stop&utm_medium=open_data_stop_click&utm_campaign=open_data_click","","","0","Level 0",""
"17139","17139","Carisbrook General Store/Green St","-37.04897398","143.81309161","https://transport.vic.gov.au/stop/4523/?utm_source=open_data_click_stop&utm_medium=open_data_stop_click&utm_campaign=open_data_click","","","0","Level 0",""
"17144","17144","Market St/Harmony Way ","-36.99682825","144.26098202","https://transport.vic.gov.au/stop/4245/?utm_source=open_data_click_stop&utm_medium=open_data_stop_click&utm_campaign=open_data_click","","","0","Level 0",""
"17145","17145","Market St/Harmony Way ","-36.99692827","144.26063014","https://transport.vic.gov.au/stop/4245/?utm_source=open_data_click_stop&utm_medium=open_data_stop_click&utm_campaign=open_data_click","","","0","Level 0",""
"17148","17148","CFA/Bridport St","-37.34271004","144.14103784","https://transport.vic.gov.au/stop/4246/?utm_source=open_data_click_stop&utm_medium=open_data_stop_click&utm_campaign=open_data_click","","","0","Level 0",""
"17149","17149","Hotel/Midland Hwy","-37.36722110","144.04223726","https://transport.vic.gov.au/stop/4100/?utm_source=open_data_click_stop&utm_medium=open_data_stop_click&utm_campaign=open_data_click","","","0","Level 0",""
"17150","17150","Hotel/Midland Hwy","-37.36727537","144.04188515","https://transport.vic.gov.au/stop/4100/?utm_source=open_data_click_stop&utm_medium=open_data_stop_click&utm_campaign=open_data_click","","","0","Level 0",""
"17151","17151","Antique Shop/Midland Hwy","-37.40177061","143.99450278","https://transport.vic.gov.au/stop/4244/?utm_source=open_data_click_stop&utm_medium=open_data_stop_click&utm_campaign=open_data_click","","","0","Level 0",""
"17152","17152","Antique Shop/Midland Hwy","-37.40167772","143.99439355","https://transport.vic.gov.au/stop/4244/?utm_source=open_data_click_stop&utm_medium=open_data_stop_click&utm_campaign=open_data_click","","","0","Level 0",""
"17231","17231","Euroa Station/Railway St","-36.74939600","145.56841973","https://transport.vic.gov.au/stop/4576/?utm_source=open_data_click_stop&utm_medium=open_data_stop_click&utm_campaign=open_data_click","","","0","Level 0",""
"17247","17247","Blanche St/Foord St","-36.01027622","146.39406180","https://transport.vic.gov.au/stop/4350/?utm_source=open_data_click_stop&utm_medium=open_data_stop_click&utm_campaign=open_data_click","","","0","Level 0",""
"17248","17248","Blanche St/Foord St","-36.01028428","146.39387310","https://transport.vic.gov.au/stop/4350/?utm_source=open_data_click_stop&utm_medium=open_data_stop_click&utm_campaign=open_data_click","","","0","Level 0",""
"17253","17253","Wangaratta Station/Norton St ","-36.35506560","146.31717251","https://transport.vic.gov.au/stop/4670/?utm_source=open_data_click_stop&utm_medium=open_data_stop_click&utm_campaign=open_data_click","","","0","",""
"17347","17347","King St/Commercial St","-38.43088064","145.82282312","https://transport.vic.gov.au/stop/4442/?utm_source=open_data_click_stop&utm_medium=open_data_stop_click&utm_campaign=open_data_click","","","0","Level 0",""
"17351","17351","Leongatha Railway Station/Long St","-38.47713866","145.94788910","https://transport.vic.gov.au/stop/4448/?utm_source=open_data_click_stop&utm_medium=open_data_stop_click&utm_campaign=open_data_click","","","0","Level 0",""
"17365","17365","Memorial Park/Grant St","-38.56484586","146.67475800","https://transport.vic.gov.au/stop/4446/?utm_source=open_data_click_stop&utm_medium=open_data_stop_click&utm_campaign=open_data_click","","","0","Level 0",""
"17368","17368","Pier Rd/Bass Hwy","-38.40695913","145.53038754","https://transport.vic.gov.au/stop/4459/?utm_source=open_data_click_stop&utm_medium=open_data_stop_click&utm_campaign=open_data_click","","","0","Level 0",""
"17369","17369","Grantville-Glen Alvie Rd/Bass Hwy","-38.40815348","145.53005413","https://transport.vic.gov.au/stop/4564/?utm_source=open_data_click_stop&utm_medium=open_data_stop_click&utm_campaign=open_data_click","","","0","Level 0",""
"17372","17372","Corinella Public Hall/Smythe St","-38.41446983","145.43332554","https://transport.vic.gov.au/stop/4461/?utm_source=open_data_click_stop&utm_medium=open_data_stop_click&utm_campaign=open_data_click","","","0","Level 0",""
"17379","17379","Forrest Ave/Phillip Island Rd","-38.51490323","145.35779179","https://transport.vic.gov.au/stop/4153/?utm_source=open_data_click_stop&utm_medium=open_data_stop_click&utm_campaign=open_data_click","","","0","Level 0",""
"17381","17381","Walton St/Thompson Ave","-38.45904751","145.23906754","https://transport.vic.gov.au/stop/4467/?utm_source=open_data_click_stop&utm_medium=open_data_stop_click&utm_campaign=open_data_click","","","0","Level 0",""
"17382","17382","Walton St/Thompson Ave","-38.45876448","145.23882229","https://transport.vic.gov.au/stop/4467/?utm_source=open_data_click_stop&utm_medium=open_data_stop_click&utm_campaign=open_data_click","","","0","Level 0",""
"17384","17384","Peppermint Rd/Bass Hwy","-38.54945514","145.47592172","https://transport.vic.gov.au/stop/4469/?utm_source=open_data_click_stop&utm_medium=open_data_stop_click&utm_campaign=open_data_click","","","0","Level 0",""
"17385","17385","Peppermint Rd/Bass Hwy","-38.54957031","145.47577011","https://transport.vic.gov.au/stop/4469/?utm_source=open_data_click_stop&utm_medium=open_data_stop_click&utm_campaign=open_data_click","","","0","Level 0",""
"17386","17386","Ozone Hotel/Bass Hwy","-38.56346525","145.54656746","https://transport.vic.gov.au/stop/4470/?utm_source=open_data_click_stop&utm_medium=open_data_stop_click&utm_campaign=open_data_click","","","0","Level 0",""
"17387","17387","Ozone Hotel/Bass Hwy","-38.56332282","145.54670806","https://transport.vic.gov.au/stop/4470/?utm_source=open_data_click_stop&utm_medium=open_data_stop_click&utm_campaign=open_data_click","","","0","Level 0",""
"17419","17419","Albury Station/Hume Hwy ","-36.08424346","146.92432663","https://transport.vic.gov.au/stop/4672/?utm_source=open_data_click_stop&utm_medium=open_data_stop_click&utm_campaign=open_data_click","","","0","","Bay A"
"17581","17581","Hogan St/Fraser St","-36.44047613","145.22530943","https://transport.vic.gov.au/stop/4505/?utm_source=open_data_click_stop&utm_medium=open_data_stop_click&utm_campaign=open_data_click","","","0","Level 0",""
"17681","17681","Moorabool St/Malop St ","-38.14722853","144.36036933","https://transport.vic.gov.au/stop/4018/?utm_source=open_data_click_stop&utm_medium=open_data_stop_click&utm_campaign=open_data_click","","","0","Level 0",""
"17717","17717","Skenes Creek Valley Rd/Great Ocean Rd","-38.72499803","143.71012462","https://transport.vic.gov.au/stop/4021/?utm_source=open_data_click_stop&utm_medium=open_data_stop_click&utm_campaign=open_data_click","","","0","Level 0",""
"17718","17718","Pisces Holiday Park/Great Ocean Rd","-38.74171599","143.67538986","https://transport.vic.gov.au/stop/4009/?utm_source=open_data_click_stop&utm_medium=open_data_stop_click&utm_campaign=open_data_click","","","0","Level 0",""
"17719","17719","Pisces Holiday Park/Great Ocean Rd","-38.74167837","143.67533409","https://transport.vic.gov.au/stop/4009/?utm_source=open_data_click_stop&utm_medium=open_data_stop_click&utm_campaign=open_data_click","","","0","Level 0",""
"17720","17720","Visitor Information Centre/Great Ocean Rd","-38.75454390","143.66906494","https://transport.vic.gov.au/stop/4599/?utm_source=open_data_click_stop&utm_medium=open_data_stop_click&utm_campaign=open_data_click","","","0","Level 0",""
"17726","17726","Surf Club/Tregea St","-38.61920367","142.99377651","https://transport.vic.gov.au/stop/4028/?utm_source=open_data_click_stop&utm_medium=open_data_stop_click&utm_campaign=open_data_click","","","0","Level 0",""
"17729","17729","Peterborough General Store/Macs St ","-38.60700037","142.87756819","https://transport.vic.gov.au/stop/4027/?utm_source=open_data_click_stop&utm_medium=open_data_stop_click&utm_campaign=open_data_click","","","0","Level 0",""
"17730","17730","Peterborough General Store/Macs St ","-38.60702106","142.87687829","https://transport.vic.gov.au/stop/4027/?utm_source=open_data_click_stop&utm_medium=open_data_stop_click&utm_campaign=open_data_click","","","0","Level 0",""
"17737","17737","Spring St/Commercial Rd","-38.29165772","142.36250943","https://transport.vic.gov.au/stop/4155/?utm_source=open_data_click_stop&utm_medium=open_data_stop_click&utm_campaign=open_data_click","","","0","Level 0",""
"17738","17738","Spring St/Commercial Rd","-38.29138679","142.36203536","https://transport.vic.gov.au/stop/4155/?utm_source=open_data_click_stop&utm_medium=open_data_stop_click&utm_campaign=open_data_click","","","0","Level 0",""
"17753","17753","Hamilton Station/Station St","-37.74660031","142.02827004","https://transport.vic.gov.au/stop/4125/?utm_source=open_data_click_stop&utm_medium=open_data_stop_click&utm_campaign=open_data_click","","","0","Level 0",""
"17759","17759","Willaura Kindergarten/Willaura-Wickliffe Rd ","-37.54469017","142.74236563","https://transport.vic.gov.au/stop/4127/?utm_source=open_data_click_stop&utm_medium=open_data_stop_click&utm_campaign=open_data_click","","","0","Level 0",""
"17760","17760","CFA Station/Glenelg Hwy","-37.69039635","142.72293732","https://transport.vic.gov.au/stop/4133/?utm_source=open_data_click_stop&utm_medium=open_data_stop_click&utm_campaign=open_data_click","","","0","Level 0",""
"17761","17761","CFA Station/Glenelg Hwy","-37.69090421","142.72303277","https://transport.vic.gov.au/stop/4133/?utm_source=open_data_click_stop&utm_medium=open_data_stop_click&utm_campaign=open_data_click","","","0","Level 0",""
"17763","17763","Information Centre/Glenelg Hwy","-37.71239812","142.84048065","https://transport.vic.gov.au/stop/4129/?utm_source=open_data_click_stop&utm_medium=open_data_stop_click&utm_campaign=open_data_click","","","0","Level 0",""
"17773","17773","Loader St/Glenelg Hwy","-37.64497776","143.68433658","https://transport.vic.gov.au/stop/4240/?utm_source=open_data_click_stop&utm_medium=open_data_stop_click&utm_campaign=open_data_click","","","0","Level 0",""
"17774","17774","Loader St/Glenelg Hwy","-37.64502753","143.68450433","https://transport.vic.gov.au/stop/4240/?utm_source=open_data_click_stop&utm_medium=open_data_stop_click&utm_campaign=open_data_click","","","0","Level 0",""
"17776","17776","Jetty Rd/Princes Hwy","-37.87446202","148.00773284","https://transport.vic.gov.au/stop/4588/?utm_source=open_data_click_stop&utm_medium=open_data_stop_click&utm_campaign=open_data_click","","","0","Level 0",""
"17799","17799","Ararat Railway Station/High St ","-37.28243901","142.93691236","https://transport.vic.gov.au/stop/34091/?utm_source=open_data_click_stop&utm_medium=open_data_stop_click&utm_campaign=open_data_click","","","0","",""
"17801","17801","Cuibitt St/Western Hwy","-37.15149506","142.85345134","https://transport.vic.gov.au/stop/4574/?utm_source=open_data_click_stop&utm_medium=open_data_stop_click&utm_campaign=open_data_click","","","0","Level 0",""
"17802","17802","Cubitt St/Western Hwy","-37.15193944","142.85482246","https://transport.vic.gov.au/stop/4105/?utm_source=open_data_click_stop&utm_medium=open_data_stop_click&utm_campaign=open_data_click","","","0","Level 0",""
"17803","17803","Stawell Station/Napier St ","-37.05925865","142.77354844","https://transport.vic.gov.au/stop/4675/?utm_source=open_data_click_stop&utm_medium=open_data_stop_click&utm_campaign=open_data_click","","","0","",""
"17809","17809","McDonald St/Marma St","-36.62011582","142.47022867","https://transport.vic.gov.au/stop/4079/?utm_source=open_data_click_stop&utm_medium=open_data_stop_click&utm_campaign=open_data_click","","","0","Level 0",""
"17810","17810","Walter St/Cromie St","-36.63140682","142.63140943","https://transport.vic.gov.au/stop/4070/?utm_source=open_data_click_stop&utm_medium=open_data_stop_click&utm_campaign=open_data_click","","","0","Level 0",""
"17812","17812","Main St/Church St","-36.46029056","142.58737670","https://transport.vic.gov.au/stop/4138/?utm_source=open_data_click_stop&utm_medium=open_data_stop_click&utm_campaign=open_data_click","","","0","Level 0",""
"17816","17816","Scott St/Woolcock St","-36.25091077","142.39533268","https://transport.vic.gov.au/stop/4141/?utm_source=open_data_click_stop&utm_medium=open_data_stop_click&utm_campaign=open_data_click","","","0","Level 0",""
"17817","17817","Swann St/Henty Hwy","-36.07674229","142.42104076","https://transport.vic.gov.au/stop/4144/?utm_source=open_data_click_stop&utm_medium=open_data_stop_click&utm_campaign=open_data_click","","","0","Level 0",""
"17818","17818","Swann St/Henty Hwy","-36.07649913","142.42127679","https://transport.vic.gov.au/stop/4144/?utm_source=open_data_click_stop&utm_medium=open_data_stop_click&utm_campaign=open_data_click","","","0","Level 0",""
"17821","17821","Hogans Newsagent/Phillips St","-35.93939851","142.42090759","https://transport.vic.gov.au/stop/4137/?utm_source=open_data_click_stop&utm_medium=open_data_stop_click&utm_campaign=open_data_click","","","0","Level 0",""
"17825","17825","Austin St/Henty Hwy","-35.72658891","142.36436158","https://transport.vic.gov.au/stop/4134/?utm_source=open_data_click_stop&utm_medium=open_data_stop_click&utm_campaign=open_data_click","","","0","Level 0",""
"17826","17826","Austin St/Henty Hwy","-35.72697013","142.36467082","https://transport.vic.gov.au/stop/4134/?utm_source=open_data_click_stop&utm_medium=open_data_stop_click&utm_campaign=open_data_click","","","0","Level 0",""
"17827","17827","Coach Terminal/24 Roberts Ave","-36.71419125","142.20051873","https://transport.vic.gov.au/stop/4080/?utm_source=open_data_click_stop&utm_medium=open_data_stop_click&utm_campaign=open_data_click","","","0","Level 0",""
"17828","17828","Fisher St/Western Hwy","-36.58469184","142.11832723","https://transport.vic.gov.au/stop/4106/?utm_source=open_data_click_stop&utm_medium=open_data_stop_click&utm_campaign=open_data_click","","","0","Level 0",""
"17829","17829","Fisher St/Western Hwy","-36.58476720","142.11818847","https://transport.vic.gov.au/stop/4106/?utm_source=open_data_click_stop&utm_medium=open_data_stop_click&utm_campaign=open_data_click","","","0","Level 0",""
"17831","17831","Car Park Rear Toilet Block/Lloyd St","-36.45363054","142.02663605","https://transport.vic.gov.au/stop/4094/?utm_source=open_data_click_stop&utm_medium=open_data_stop_click&utm_campaign=open_data_click","","","0","Level 0",""
"17835","17835","Information Centre/Western Hwy","-36.33391706","141.64912222","https://transport.vic.gov.au/stop/4082/?utm_source=open_data_click_stop&utm_medium=open_data_stop_click&utm_campaign=open_data_click","","","0","Level 0",""
"17837","17837","Kaniva Community Roadhouse/Western Hwy","-36.37883167","141.24083990","https://transport.vic.gov.au/stop/4083/?utm_source=open_data_click_stop&utm_medium=open_data_stop_click&utm_campaign=open_data_click","","","0","Level 0",""
"17840","17840","Caltex Station/Calder Hwy","-35.06938737","142.31875431","https://transport.vic.gov.au/stop/4040/?utm_source=open_data_click_stop&utm_medium=open_data_stop_click&utm_campaign=open_data_click","","","0","Level 0",""
"17841","17841","Caltex Station/Calder Hwy","-35.06959650","142.31903814","https://transport.vic.gov.au/stop/4040/?utm_source=open_data_click_stop&utm_medium=open_data_stop_click&utm_campaign=open_data_click","","","0","Level 0",""
"17963","17963","Miners Rest Hotel/138 McKenzie St","-38.59575151","145.59214542","https://transport.vic.gov.au/stop/4366/?utm_source=open_data_click_stop&utm_medium=open_data_stop_click&utm_campaign=open_data_click","","","0","Level 0",""
"17967","17967","Seaward Dr/Cape Paterson Rd","-38.66747582","145.62115505","https://transport.vic.gov.au/stop/4473/?utm_source=open_data_click_stop&utm_medium=open_data_stop_click&utm_campaign=open_data_click","","","0","Level 0",""
"17968","17968","Seaward Dr/Cape Paterson Rd","-38.66777096","145.62096548","https://transport.vic.gov.au/stop/4473/?utm_source=open_data_click_stop&utm_medium=open_data_stop_click&utm_campaign=open_data_click","","","0","Level 0",""
"17969","17969","Ramsay Bvd/The Esplanade","-38.63460583","145.72967732","https://transport.vic.gov.au/stop/4474/?utm_source=open_data_click_stop&utm_medium=open_data_stop_click&utm_campaign=open_data_click","","","0","Level 0",""
"17970","17970","Gurdies - St Helier Rd/Bass Hwy","-38.37153393","145.56305307","https://transport.vic.gov.au/stop/4475/?utm_source=open_data_click_stop&utm_medium=open_data_stop_click&utm_campaign=open_data_click","","","0","Level 0",""
"17973","17973","Red Cliffs Post Office/Indi Ave ","-34.30723305","142.18757333","https://transport.vic.gov.au/stop/4208/?utm_source=open_data_click_stop&utm_medium=open_data_stop_click&utm_campaign=open_data_click","","","0","Level 0",""
"17976","17976","Mildura Station/Seventh St ","-34.18210554","142.16323421","https://transport.vic.gov.au/stop/4402/?utm_source=open_data_click_stop&utm_medium=open_data_stop_click&utm_campaign=open_data_click","","","0","",""
"17977","17977","General Store/Sunraysia Hwy","-35.34531466","142.42480251","https://transport.vic.gov.au/stop/4038/?utm_source=open_data_click_stop&utm_medium=open_data_stop_click&utm_campaign=open_data_click","","","0","Level 0",""
"17978","17978","General Store/Sunraysia Hwy","-35.34498360","142.42462333","https://transport.vic.gov.au/stop/4038/?utm_source=open_data_click_stop&utm_medium=open_data_stop_click&utm_campaign=open_data_click","","","0","Level 0",""
"17979","17979","Service Station/Sunraysia Hwy","-35.40194436","142.43883730","https://transport.vic.gov.au/stop/4216/?utm_source=open_data_click_stop&utm_medium=open_data_stop_click&utm_campaign=open_data_click","","","0","Level 0",""
"17980","17980","Service Station/Sunraysia Hwy","-35.40178450","142.43865930","https://transport.vic.gov.au/stop/4216/?utm_source=open_data_click_stop&utm_medium=open_data_stop_click&utm_campaign=open_data_click","","","0","Level 0",""
"17983","17983","Boree St/Sunraysia Hwy","-35.60788094","142.57925681","https://transport.vic.gov.au/stop/4135/?utm_source=open_data_click_stop&utm_medium=open_data_stop_click&utm_campaign=open_data_click","","","0","Level 0",""
"17984","17984","Boree St/Sunraysia Hwy","-35.60784620","142.57929181","https://transport.vic.gov.au/stop/4135/?utm_source=open_data_click_stop&utm_medium=open_data_stop_click&utm_campaign=open_data_click","","","0","Level 0",""
"17985","17985","Woomelang Station/Sunraysia Hwy","-35.68247018","142.66442536","https://transport.vic.gov.au/stop/4218/?utm_source=open_data_click_stop&utm_medium=open_data_stop_click&utm_campaign=open_data_click","","","0","Level 0",""
"17986","17986","Woomelang Station/Sunraysia Hwy","-35.68255571","142.66429927","https://transport.vic.gov.au/stop/4218/?utm_source=open_data_click_stop&utm_medium=open_data_stop_click&utm_campaign=open_data_click","","","0","Level 0",""
"17987","17987","Memorial Park/Cumming Ave","-35.98126529","142.91791241","https://transport.vic.gov.au/stop/4202/?utm_source=open_data_click_stop&utm_medium=open_data_stop_click&utm_campaign=open_data_click","","","0","Level 0",""
"17989","17989","Post Office/Sunraysia Hwy","-36.37066690","142.98266729","https://transport.vic.gov.au/stop/4211/?utm_source=open_data_click_stop&utm_medium=open_data_stop_click&utm_campaign=open_data_click","","","0","Level 0",""
"17991","17991","Dundas St/Market St","-36.61529496","143.25862018","https://transport.vic.gov.au/stop/4047/?utm_source=open_data_click_stop&utm_medium=open_data_stop_click&utm_campaign=open_data_click","","","0","Level 0",""
"17997","17997","Havelock St/Clarendon St","-37.04705028","143.73611513","https://transport.vic.gov.au/stop/4205/?utm_source=open_data_click_stop&utm_medium=open_data_stop_click&utm_campaign=open_data_click","","","0","Level 0",""
"18000","18000","Avoca Hotel/Sunraysia Hwy","-37.08901857","143.47387506","https://transport.vic.gov.au/stop/4610/?utm_source=open_data_click_stop&utm_medium=open_data_stop_click&utm_campaign=open_data_click","","","0","Level 0",""
"18001","18001","Avoca Information Centre/Sunraysia Hwy","-37.08881801","143.47440169","https://transport.vic.gov.au/stop/4042/?utm_source=open_data_click_stop&utm_medium=open_data_stop_click&utm_campaign=open_data_click","","","0","Level 0",""
"1801","1801","199 High St","-37.08085881","143.47125106","https://transport.vic.gov.au/stop/32487/?utm_source=open_data_click_stop&utm_medium=open_data_stop_click&utm_campaign=open_data_click","","","0","Level 0",""
"18335","18335","Michael St/Princes Hwy","-38.06186202","145.45605806","https://transport.vic.gov.au/stop/17744/?utm_source=open_data_click_stop&utm_medium=open_data_stop_click&utm_campaign=open_data_click","","","0","Level 0",""
"18686","18686","Post Office/Myrtle St","-36.56129153","146.72496984","https://transport.vic.gov.au/stop/4515/?utm_source=open_data_click_stop&utm_medium=open_data_stop_click&utm_campaign=open_data_click","","","0","Level 0",""
"18687","18687","Post Office/Myrtle St","-36.56164337","146.72508035","https://transport.vic.gov.au/stop/4515/?utm_source=open_data_click_stop&utm_medium=open_data_stop_click&utm_campaign=open_data_click","","","0","Level 0",""
"18688","18688","Bailey St/Nicholson St","-36.70015422","146.91142381","https://transport.vic.gov.au/stop/4516/?utm_source=open_data_click_stop&utm_medium=open_data_stop_click&utm_campaign=open_data_click","","","0","Level 0",""
"18689","18689","Alpine Hotel/Anderson St","-36.72835205","146.96043300","https://transport.vic.gov.au/stop/4517/?utm_source=open_data_click_stop&utm_medium=open_data_stop_click&utm_campaign=open_data_click","","","0","Level 0",""
"18690","18690","Falls Creek Coaches/233 Kiewa Valley Hwy","-36.73798576","147.16098706","https://transport.vic.gov.au/stop/4518/?utm_source=open_data_click_stop&utm_medium=open_data_stop_click&utm_campaign=open_data_click","","","0","Level 0",""
"1937","1937","Webster St/Dunlop St","-38.08095414","142.80480419","https://transport.vic.gov.au/stop/4242/?utm_source=open_data_click_stop&utm_medium=open_data_stop_click&utm_campaign=open_data_click","","","0","Level 0",""
"19517","19517","Cambells Bridge Rd/Donald-Stawell Rd ","-36.91609576","142.78557039","https://transport.vic.gov.au/stop/31305/?utm_source=open_data_click_stop&utm_medium=open_data_stop_click&utm_campaign=open_data_click","","","0","Level 0",""
"19521","19521","6006 Donald -Stawell Rd","-36.81414564","142.78556320","https://transport.vic.gov.au/stop/31306/?utm_source=open_data_click_stop&utm_medium=open_data_stop_click&utm_campaign=open_data_click","","","0","Level 0",""
"19523","19523","Park Rd/Donald Stawell Rd","-36.67136276","142.86976427","https://transport.vic.gov.au/stop/18097/?utm_source=open_data_click_stop&utm_medium=open_data_stop_click&utm_campaign=open_data_click","","","0","Level 0",""
"19793","19793","Park Rd/Donald Stawell Rd","-36.67141004","142.86982884","https://transport.vic.gov.au/stop/18097/?utm_source=open_data_click_stop&utm_medium=open_data_stop_click&utm_campaign=open_data_click","","","0","Level 0",""
"19794","19794","6003 Donald Stawell Rd","-36.81413044","142.78564245","https://transport.vic.gov.au/stop/22925/?utm_source=open_data_click_stop&utm_medium=open_data_stop_click&utm_campaign=open_data_click","","","0","Level 0",""
"19795","19795","Greens Creek Rd/Donald -Stawell Rd","-36.91624318","142.78566323","https://transport.vic.gov.au/stop/19931/?utm_source=open_data_click_stop&utm_medium=open_data_stop_click&utm_campaign=open_data_click","","","0","Level 0",""
"19798","19798","Stawell Leisure Centre/Houston St ","-37.05152448","142.77945113","https://transport.vic.gov.au/stop/24753/?utm_source=open_data_click_stop&utm_medium=open_data_stop_click&utm_campaign=open_data_click","","","0","Level 0",""
"19799","19799","Community Health Centre/Patrick St","-37.05580245","142.78373178","https://transport.vic.gov.au/stop/25107/?utm_source=open_data_click_stop&utm_medium=open_data_stop_click&utm_campaign=open_data_click","","","0","Level 0",""
"20816","20816","Sunbury Station/Brook St","-37.57912373","144.72855201","https://transport.vic.gov.au/stop/4064/?utm_source=open_data_click_stop&utm_medium=open_data_stop_click&utm_campaign=open_data_click","","","0","Level 0","Bay A"
"20830","20830","Gisborne Station/Early St","-37.45919956","144.59894700","https://transport.vic.gov.au/stop/30398/?utm_source=open_data_click_stop&utm_medium=open_data_stop_click&utm_campaign=open_data_click","","","0","Level 0",""
"20831","20831","Riddells Creek Station/Hamilton St ","-37.46454685","144.67936240","https://transport.vic.gov.au/stop/4681/?utm_source=open_data_click_stop&utm_medium=open_data_stop_click&utm_campaign=open_data_click","","","0","",""
"20832","20832","Clarkefield Station/Station St ","-37.48342397","144.74575936","https://transport.vic.gov.au/stop/4682/?utm_source=open_data_click_stop&utm_medium=open_data_stop_click&utm_campaign=open_data_click","","","0","",""
"20847","20847","BP Roadhouse/Homburg Tce","-35.26056761","140.91370993","https://transport.vic.gov.au/stop/4191/?utm_source=open_data_click_stop&utm_medium=open_data_stop_click&utm_campaign=open_data_click","","","0","Level 0",""
"20849","20849","General Store/Mallee Hwy","-35.16985947","141.81026609","https://transport.vic.gov.au/stop/4193/?utm_source=open_data_click_stop&utm_medium=open_data_stop_click&utm_campaign=open_data_click","","","0","Level 0",""
"20850","20850","General Store/Mallee Hwy","-35.13594174","142.02383233","https://transport.vic.gov.au/stop/4194/?utm_source=open_data_click_stop&utm_medium=open_data_stop_click&utm_campaign=open_data_click","","","0","Level 0",""
"20856","20856","Nowa Nowa General Store/Princes Hwy","-37.73231257","148.09159589","https://transport.vic.gov.au/stop/4527/?utm_source=open_data_click_stop&utm_medium=open_data_stop_click&utm_campaign=open_data_click","","","0","Level 0",""
"20863","20863","Genoa Hotel/Alexanders Rd","-37.47506014","149.59200294","https://transport.vic.gov.au/stop/4276/?utm_source=open_data_click_stop&utm_medium=open_data_stop_click&utm_campaign=open_data_click","","","0","Level 0",""
"20884","20884","Maldon Post Office/High St","-36.99597244","144.06800304","https://transport.vic.gov.au/stop/4390/?utm_source=open_data_click_stop&utm_medium=open_data_stop_click&utm_campaign=open_data_click","","","0","Level 0",""
"20889","20889","Morrissey St/Waverley Ave ","-36.37185386","145.13202630","https://transport.vic.gov.au/stop/4502/?utm_source=open_data_click_stop&utm_medium=open_data_stop_click&utm_campaign=open_data_click","","","0","",""
"20890","20890","Goornong Station/Midland Hwy","-36.61522552","144.50506034","https://transport.vic.gov.au/stop/4542/?utm_source=open_data_click_stop&utm_medium=open_data_stop_click&utm_campaign=open_data_click","","","0","Level 0",""
"20902","20902","Raymond Island Ferry Terminal/Devon Rd","-37.91910113","147.72506434","https://transport.vic.gov.au/stop/4531/?utm_source=open_data_click_stop&utm_medium=open_data_stop_click&utm_campaign=open_data_click","","","0","Level 0",""
"20903","20903","Latrobe Regional Hospital","-38.21891367","146.47030929","https://transport.vic.gov.au/stop/4450/?utm_source=open_data_click_stop&utm_medium=open_data_stop_click&utm_campaign=open_data_click","","","0","Level 0",""
"20916","20916","Trentham Milk Bar/Market St","-37.38957398","144.32291062","https://transport.vic.gov.au/stop/4305/?utm_source=open_data_click_stop&utm_medium=open_data_stop_click&utm_campaign=open_data_click","","","0","Level 0",""
"21188","21188","Scott St/Lyle St","-36.25333709","142.39542352","https://transport.vic.gov.au/stop/29653/?utm_source=open_data_click_stop&utm_medium=open_data_stop_click&utm_campaign=open_data_click","","","0","Level 0",""
"21708","21708","Horsham Station/Railway Ave ","-36.70778982","142.20078356","https://transport.vic.gov.au/stop/4691/?utm_source=open_data_click_stop&utm_medium=open_data_stop_click&utm_campaign=open_data_click","","","0","",""
"21710","21710","Nowa Nowa/Princes Hwy","-37.73390306","148.08919067","https://transport.vic.gov.au/stop/4269/?utm_source=open_data_click_stop&utm_medium=open_data_stop_click&utm_campaign=open_data_click","","","0","Level 0",""
"22086","22086","Falls Rd/Pack Rd","-37.51088341","145.74713567","https://transport.vic.gov.au/stop/26121/?utm_source=open_data_click_stop&utm_medium=open_data_stop_click&utm_campaign=open_data_click","","","0","Level 0",""
"22087","22087","Buxton Rise/Maroondah Hwy","-37.42315139","145.70879636","https://transport.vic.gov.au/stop/26122/?utm_source=open_data_click_stop&utm_medium=open_data_stop_click&utm_campaign=open_data_click","","","0","Level 0",""
"22088","22088","Buxton Rise/Maroondah Hwy","-37.42212593","145.70898349","https://transport.vic.gov.au/stop/26122/?utm_source=open_data_click_stop&utm_medium=open_data_stop_click&utm_campaign=open_data_click","","","0","Level 0",""
"22089","22089","3321 Maroondah Hwy","-37.32356398","145.71210513","https://transport.vic.gov.au/stop/21863/?utm_source=open_data_click_stop&utm_medium=open_data_stop_click&utm_campaign=open_data_click","","","0","Level 0",""
"22090","22090","3313 Maroondah Hwy","-37.32387320","145.71235943","https://transport.vic.gov.au/stop/26123/?utm_source=open_data_click_stop&utm_medium=open_data_stop_click&utm_campaign=open_data_click","","","0","Level 0",""
"22091","22091","Perkins St/Grant St","-37.19096159","145.70907706","https://transport.vic.gov.au/stop/26124/?utm_source=open_data_click_stop&utm_medium=open_data_stop_click&utm_campaign=open_data_click","","","0","Level 0",""
"22092","22092","Taggerty-Thornton Rd/Goulburn Valley Hwy","-37.25464637","145.79768012","https://transport.vic.gov.au/stop/15362/?utm_source=open_data_click_stop&utm_medium=open_data_stop_click&utm_campaign=open_data_click","","","0","Level 0",""
"22093","22093","Taggerty-Thornton Rd/Goulburn Valley Hwy","-37.25474401","145.79753198","https://transport.vic.gov.au/stop/15362/?utm_source=open_data_click_stop&utm_medium=open_data_stop_click&utm_campaign=open_data_click","","","0","Level 0",""
"22094","22094","Eildon SC/Main St","-37.23262878","145.90966445","https://transport.vic.gov.au/stop/26126/?utm_source=open_data_click_stop&utm_medium=open_data_stop_click&utm_campaign=open_data_click","","","0","Level 0",""
"22613","22613","Longerenong Rd/Henty Hwy","-36.66114143","142.25509695","https://transport.vic.gov.au/stop/4451/?utm_source=open_data_click_stop&utm_medium=open_data_stop_click&utm_campaign=open_data_click","","","0","Level 0",""
"22694","22694","Corryong Newsagency/Murray Valley Hwy","-36.19579799","147.90480613","https://transport.vic.gov.au/stop/4333/?utm_source=open_data_click_stop&utm_medium=open_data_stop_click&utm_campaign=open_data_click","","","0","Level 0",""
"22695","22695","Miners Rest Tavern/Howe St","-37.48103967","143.80128037","https://transport.vic.gov.au/stop/26012/?utm_source=open_data_click_stop&utm_medium=open_data_stop_click&utm_campaign=open_data_click","","","0","Level 0",""
"22697","22697","Learmonth General Store/Sunraysia Hwy","-37.42083807","143.71347110","https://transport.vic.gov.au/stop/26028/?utm_source=open_data_click_stop&utm_medium=open_data_stop_click&utm_campaign=open_data_click","","","0","Level 0",""
"22698","22698","Laidlaw St/Sunraysia Hwy","-37.42054655","143.71400350","https://transport.vic.gov.au/stop/26043/?utm_source=open_data_click_stop&utm_medium=open_data_stop_click&utm_campaign=open_data_click","","","0","Level 0",""
"22699","22699","Hall St/Sunraysia Hwy","-37.35817837","143.63804496","https://transport.vic.gov.au/stop/26045/?utm_source=open_data_click_stop&utm_medium=open_data_stop_click&utm_campaign=open_data_click","","","0","Level 0",""
"22700","22700","Hall St/Sunraysia Hwy","-37.35772044","143.63778324","https://transport.vic.gov.au/stop/26045/?utm_source=open_data_click_stop&utm_medium=open_data_stop_click&utm_campaign=open_data_click","","","0","Level 0",""
"22703","22703","Quire Rd/Buchan Rd","-37.54486622","148.12449100","https://transport.vic.gov.au/stop/25960/?utm_source=open_data_click_stop&utm_medium=open_data_stop_click&utm_campaign=open_data_click","","","0","Level 0",""
"22704","22704","Quire Rd/Buchan South Rd","-37.54612999","148.12523446","https://transport.vic.gov.au/stop/31673/?utm_source=open_data_click_stop&utm_medium=open_data_stop_click&utm_campaign=open_data_click","","","0","Level 0",""
"22706","22706","Buchan - Orbost Rd/Buchan Rd","-37.49872320","148.17223961","https://transport.vic.gov.au/stop/25962/?utm_source=open_data_click_stop&utm_medium=open_data_stop_click&utm_campaign=open_data_click","","","0","Level 0",""
"22707","22707","Gormandale - Stradbroke Rd/Hyland Hwy","-38.29434372","146.70158501","https://transport.vic.gov.au/stop/25965/?utm_source=open_data_click_stop&utm_medium=open_data_stop_click&utm_campaign=open_data_click","","","0","Level 0",""
"22854","22854","Baringhup Caravan Park/Baringhup Rd","-36.97946488","143.97473983","https://transport.vic.gov.au/stop/24144/?utm_source=open_data_click_stop&utm_medium=open_data_stop_click&utm_campaign=open_data_click","","","0","Level 0",""
"22855","22855","Tulloch Ard Rd/Gelantipy Rd","-37.22742285","148.26318425","https://transport.vic.gov.au/stop/25969/?utm_source=open_data_click_stop&utm_medium=open_data_stop_click&utm_campaign=open_data_click","","","0","Level 0",""
"22856","22856","W Tree Co-op/Gelantipy Rd","-37.35832553","148.22538072","https://transport.vic.gov.au/stop/25971/?utm_source=open_data_click_stop&utm_medium=open_data_stop_click&utm_campaign=open_data_click","","","0","Level 0",""
"22857","22857","Lake Bunga Beach Rd/Princes Hwy","-37.86085552","148.02825998","https://transport.vic.gov.au/stop/25972/?utm_source=open_data_click_stop&utm_medium=open_data_stop_click&utm_campaign=open_data_click","","","0","Level 0",""
"22859","22859","Carinya Lodge/Carinya Cres","-38.43799404","145.81152479","https://transport.vic.gov.au/stop/25978/?utm_source=open_data_click_stop&utm_medium=open_data_stop_click&utm_campaign=open_data_click","","","0","Level 0",""
"22860","22860","IGA Supermarket/1 South Railway Cres","-38.43373317","145.82599625","https://transport.vic.gov.au/stop/25979/?utm_source=open_data_click_stop&utm_medium=open_data_stop_click&utm_campaign=open_data_click","","","0","Level 0",""
"22863","22863","Nalder Dr/Werrill St","-35.35995502","143.55785864","https://transport.vic.gov.au/stop/25987/?utm_source=open_data_click_stop&utm_medium=open_data_stop_click&utm_campaign=open_data_click","","","0","Level 0",""
"22871","22871","Tobin St/Montgomery St","-37.29423988","142.92071723","https://transport.vic.gov.au/stop/26003/?utm_source=open_data_click_stop&utm_medium=open_data_stop_click&utm_campaign=open_data_click","","","0","Level 0",""
"22872","22872","Port Fairy Rd/Montgomery St","-37.29452528","142.92402792","https://transport.vic.gov.au/stop/26005/?utm_source=open_data_click_stop&utm_medium=open_data_stop_click&utm_campaign=open_data_click","","","0","Level 0",""
"22875","22875","Vanstan St/High St St","-37.28566663","142.91765218","https://transport.vic.gov.au/stop/26008/?utm_source=open_data_click_stop&utm_medium=open_data_stop_click&utm_campaign=open_data_click","","","0","Level 0",""
"22876","22876","Brewster Rd/High St","-37.28610801","142.91530591","https://transport.vic.gov.au/stop/24667/?utm_source=open_data_click_stop&utm_medium=open_data_stop_click&utm_campaign=open_data_click","","","0","Level 0",""
"22878","22878","Mackay St/Henderson St","-37.28189514","142.91538744","https://transport.vic.gov.au/stop/26011/?utm_source=open_data_click_stop&utm_medium=open_data_stop_click&utm_campaign=open_data_click","","","0","Level 0",""
"22886","22886","Mudgegonga Primary School/Myrtleford - Yackandandah Rd","-36.48995341","146.83717193","https://transport.vic.gov.au/stop/26020/?utm_source=open_data_click_stop&utm_medium=open_data_stop_click&utm_campaign=open_data_click","","","0","Level 0",""
"22939","22939","Fifth St/Hepburn Springs Rd","-37.31836548","144.13855365","https://transport.vic.gov.au/stop/24816/?utm_source=open_data_click_stop&utm_medium=open_data_stop_click&utm_campaign=open_data_click","","","0","Level 0",""
"22940","22940","Mineral Springs Cres/Main Rd","-37.31009911","144.13841597","https://transport.vic.gov.au/stop/24847/?utm_source=open_data_click_stop&utm_medium=open_data_stop_click&utm_campaign=open_data_click","","","0","Level 0",""
"22948","22948","Mt Egerton General Store/Main Rd","-37.62704249","144.10477373","https://transport.vic.gov.au/stop/27240/?utm_source=open_data_click_stop&utm_medium=open_data_stop_click&utm_campaign=open_data_click","","","0","Level 0",""
"22949","22949","Oasis Village/Cobram - Koonoomoo Rd","-35.91645735","145.63585885","https://transport.vic.gov.au/stop/27241/?utm_source=open_data_click_stop&utm_medium=open_data_stop_click&utm_campaign=open_data_click","","","0","Level 0",""
"22963","22963","Blacks Lane/Hopkins Hwy","-38.27965636","142.62080898","https://transport.vic.gov.au/stop/27251/?utm_source=open_data_click_stop&utm_medium=open_data_stop_click&utm_campaign=open_data_click","","","0","Level 0",""
"22964","22964","Tomlinsons Lane/Hopkins Hwy","-38.22072211","142.65767530","https://transport.vic.gov.au/stop/27252/?utm_source=open_data_click_stop&utm_medium=open_data_stop_click&utm_campaign=open_data_click","","","0","Level 0",""
"22965","22965","Ellerslie - Panmure Rd/Hopkins Hwy","-38.14935064","142.68512781","https://transport.vic.gov.au/stop/27253/?utm_source=open_data_click_stop&utm_medium=open_data_stop_click&utm_campaign=open_data_click","","","0","Level 0",""
"22976","22976","Bendigo Bank/Maurice Ave","-37.55757692","149.75770673","https://transport.vic.gov.au/stop/4503/?utm_source=open_data_click_stop&utm_medium=open_data_stop_click&utm_campaign=open_data_click","","","0","Level 0",""
"22977","22977","Township/Gipsy Point Rd","-37.48041930","149.67931171","https://transport.vic.gov.au/stop/4520/?utm_source=open_data_click_stop&utm_medium=open_data_stop_click&utm_campaign=open_data_click","","","0","Level 0",""
"22978","22978","McMillan St/George St","-37.74400962","142.03472602","https://transport.vic.gov.au/stop/18209/?utm_source=open_data_click_stop&utm_medium=open_data_stop_click&utm_campaign=open_data_click","","","0","Level 0",""
"22980","22980","South West TAFE/200 Ballarat Rd ","-37.74374727","142.05863658","https://transport.vic.gov.au/stop/18371/?utm_source=open_data_click_stop&utm_medium=open_data_stop_click&utm_campaign=open_data_click","","","0","Level 0",""
"22981","22981","Hamilton Base Hospital/Foster St","-37.73720073","142.02958062","https://transport.vic.gov.au/stop/13138/?utm_source=open_data_click_stop&utm_medium=open_data_stop_click&utm_campaign=open_data_click","","","0","Level 0",""
"22982","22982","Lonsdale St/McIntyre St","-37.74457276","142.01759915","https://transport.vic.gov.au/stop/18606/?utm_source=open_data_click_stop&utm_medium=open_data_stop_click&utm_campaign=open_data_click","","","0","Level 0",""
"22983","22983","McPhee St/Kenny St","-37.73565477","142.00775568","https://transport.vic.gov.au/stop/18618/?utm_source=open_data_click_stop&utm_medium=open_data_stop_click&utm_campaign=open_data_click","","","0","Level 0",""
"22984","22984","Kent Rd/Hammond St ","-37.72685919","142.00631832","https://transport.vic.gov.au/stop/18637/?utm_source=open_data_click_stop&utm_medium=open_data_stop_click&utm_campaign=open_data_click","","","0","Level 0",""
"22986","22986","Kent Rd/Gordon St","-37.72815298","142.01920105","https://transport.vic.gov.au/stop/18750/?utm_source=open_data_click_stop&utm_medium=open_data_stop_click&utm_campaign=open_data_click","","","0","Level 0",""
"22988","22988","Garton St/Learmonth St","-37.73731216","142.02838258","https://transport.vic.gov.au/stop/18791/?utm_source=open_data_click_stop&utm_medium=open_data_stop_click&utm_campaign=open_data_click","","","0","Level 0",""
"22989","22989","Monegeetta Milk Bar/Melbourne-Lancefield Rd","-37.41395537","144.74929014","https://transport.vic.gov.au/stop/4521/?utm_source=open_data_click_stop&utm_medium=open_data_stop_click&utm_campaign=open_data_click","","","0","Level 0",""
"22994","22994","Chemist/Federal St","-35.89808826","141.99391679","https://transport.vic.gov.au/stop/26092/?utm_source=open_data_click_stop&utm_medium=open_data_stop_click&utm_campaign=open_data_click","","","0","Level 0",""
"22995","22995","Woods St/Byrne St","-35.76979161","142.05301921","https://transport.vic.gov.au/stop/26127/?utm_source=open_data_click_stop&utm_medium=open_data_stop_click&utm_campaign=open_data_click","","","0","Level 0",""
"22996","22996","Roy St/Dimboola - Rainbow Rd","-36.14237318","141.98831668","https://transport.vic.gov.au/stop/26128/?utm_source=open_data_click_stop&utm_medium=open_data_stop_click&utm_campaign=open_data_click","","","0","Level 0",""
"22997","22997","Tarranyurk West Rd/Dimboola - Rainbow Rd","-36.20894833","142.03421272","https://transport.vic.gov.au/stop/26267/?utm_source=open_data_click_stop&utm_medium=open_data_stop_click&utm_campaign=open_data_click","","","0","Level 0",""
"22998","22998","Antwerp Woorak Rd/Dimboola - Rainbow Rd","-36.29771854","142.02546305","https://transport.vic.gov.au/stop/26303/?utm_source=open_data_click_stop&utm_medium=open_data_stop_click&utm_campaign=open_data_click","","","0","Level 0",""
"23030","23030","Williamson St/Sunraysia Hwy","-37.27477002","143.51497121","https://transport.vic.gov.au/stop/26384/?utm_source=open_data_click_stop&utm_medium=open_data_stop_click&utm_campaign=open_data_click","","","0","Level 0",""
"23031","23031","Williamson St/Sunraysia Hwy","-37.27444383","143.51460295","https://transport.vic.gov.au/stop/26384/?utm_source=open_data_click_stop&utm_medium=open_data_stop_click&utm_campaign=open_data_click","","","0","Level 0",""
"23034","23034","Maroona General Store/Mortlake - Ararat Rd","-37.44060394","142.85931496","https://transport.vic.gov.au/stop/26476/?utm_source=open_data_click_stop&utm_medium=open_data_stop_click&utm_campaign=open_data_click","","","0","Level 0",""
"23179","23179","Havelock St/Neill St","-37.42952951","143.38154390","https://transport.vic.gov.au/stop/27269/?utm_source=open_data_click_stop&utm_medium=open_data_stop_click&utm_campaign=open_data_click","","","0","Level 0",""
"23202","23202","Aquamoves/Tom Collins Dr","-36.38602739","145.39444472","https://transport.vic.gov.au/stop/27424/?utm_source=open_data_click_stop&utm_medium=open_data_stop_click&utm_campaign=open_data_click","","","0","Level 0",""
"23253","23253","Australia Post/Mollison St","-37.24780525","144.45343469","https://transport.vic.gov.au/stop/27433/?utm_source=open_data_click_stop&utm_medium=open_data_stop_click&utm_campaign=open_data_click","","","0","Level 0",""
"23254","23254","Roderick St/High St","-37.13832896","144.34820698","https://transport.vic.gov.au/stop/27434/?utm_source=open_data_click_stop&utm_medium=open_data_stop_click&utm_campaign=open_data_click","","","0","Level 0",""
"23255","23255","Elphinstone Hotel/14 Wright St","-37.10329196","144.33255334","https://transport.vic.gov.au/stop/27435/?utm_source=open_data_click_stop&utm_medium=open_data_stop_click&utm_campaign=open_data_click","","","0","Level 0",""
"23256","23256","Pitman St/Main Rd","-37.08133628","144.26674917","https://transport.vic.gov.au/stop/27436/?utm_source=open_data_click_stop&utm_medium=open_data_stop_click&utm_campaign=open_data_click","","","0","Level 0",""
"23259","23259","Princes Hwy/Regent St","-38.38052763","142.22891379","https://transport.vic.gov.au/stop/23111/?utm_source=open_data_click_stop&utm_medium=open_data_stop_click&utm_campaign=open_data_click","","","0","Level 0",""
"23324","23324","Milk Bar/Wangaratta - Whitfield Rd","-36.57578503","146.37887586","https://transport.vic.gov.au/stop/27442/?utm_source=open_data_click_stop&utm_medium=open_data_stop_click&utm_campaign=open_data_click","","","0","Level 0",""
"23325","23325","Edi Cheshunt Rd/Wangaratta - Whitfield Rd","-36.64775822","146.42154887","https://transport.vic.gov.au/stop/27443/?utm_source=open_data_click_stop&utm_medium=open_data_stop_click&utm_campaign=open_data_click","","","0","Level 0",""
"23326","23326","King Valley Primary School/Wangaratta - Whitfield Rd","-36.70100349","146.41680643","https://transport.vic.gov.au/stop/27444/?utm_source=open_data_click_stop&utm_medium=open_data_stop_click&utm_campaign=open_data_click","","","0","Level 0",""
"23327","23327","Valley View Dr/Wangaratta - Whitfield Rd","-36.76441977","146.41453389","https://transport.vic.gov.au/stop/27445/?utm_source=open_data_click_stop&utm_medium=open_data_stop_click&utm_campaign=open_data_click","","","0","Level 0",""
"23328","23328","Edi Cheshunt Rd/King Valley Rd","-36.79926666","146.43048879","https://transport.vic.gov.au/stop/27446/?utm_source=open_data_click_stop&utm_medium=open_data_stop_click&utm_campaign=open_data_click","","","0","Level 0",""
"23513","23513","Castlemaine Hospital/Cornish St","-37.05458650","144.21241445","https://transport.vic.gov.au/stop/27464/?utm_source=open_data_click_stop&utm_medium=open_data_stop_click&utm_campaign=open_data_click","","","0","Level 0",""
"23514","23514","Anslow St/High St","-37.35622827","144.52837912","https://transport.vic.gov.au/stop/27465/?utm_source=open_data_click_stop&utm_medium=open_data_stop_click&utm_campaign=open_data_click","","","0","Level 0",""
"23515","23515","Campbells Creek Post Office/Main Rd","-37.09359859","144.20369552","https://transport.vic.gov.au/stop/27466/?utm_source=open_data_click_stop&utm_medium=open_data_stop_click&utm_campaign=open_data_click","","","0","Level 0",""
"2574","2574","Tarrington Lutheran School/Hamilton Hwy","-37.76607378","142.09441073","https://transport.vic.gov.au/stop/4119/?utm_source=open_data_click_stop&utm_medium=open_data_stop_click&utm_campaign=open_data_click","","","0","Level 0",""
"2624","2624","Camperdown Station/Longmore St ","-38.22886532","143.15066703","https://transport.vic.gov.au/stop/4645/?utm_source=open_data_click_stop&utm_medium=open_data_stop_click&utm_campaign=open_data_click","","","0","",""
"2627","2627","Colac Station/Gellibrand St ","-38.34256892","143.58640510","https://transport.vic.gov.au/stop/4646/?utm_source=open_data_click_stop&utm_medium=open_data_stop_click&utm_campaign=open_data_click","","","0","",""
"266","266","Bells Rd/Glenelg Hwy","-37.59661198","143.76895417","https://transport.vic.gov.au/stop/4228/?utm_source=open_data_click_stop&utm_medium=open_data_stop_click&utm_campaign=open_data_click","","","0","Level 0",""
"27640","27640","Gilbert Cres/Henty Hwy","-36.73736205","142.20539523","https://transport.vic.gov.au/stop/18205/?utm_source=open_data_click_stop&utm_medium=open_data_stop_click&utm_campaign=open_data_click","","","0","Level 0",""
"27641","27641","Mclean Dr/River Rd","-36.73051683","142.20247655","https://transport.vic.gov.au/stop/20254/?utm_source=open_data_click_stop&utm_medium=open_data_stop_click&utm_campaign=open_data_click","","","0","Level 0",""
"27642","27642","Bolton St/Ocallaghans Pde","-36.72112129","142.20286095","https://transport.vic.gov.au/stop/20255/?utm_source=open_data_click_stop&utm_medium=open_data_stop_click&utm_campaign=open_data_click","","","0","Level 0",""
"27643","27643","Guide & Scout Hall Reserve/Baillie St","-36.71181089","142.19421304","https://transport.vic.gov.au/stop/20269/?utm_source=open_data_click_stop&utm_medium=open_data_stop_click&utm_campaign=open_data_click","","","0","Level 0",""
"27644","27644","Horsham Racecourse & Recreation Reserve/Baillie St","-36.71184631","142.18997150","https://transport.vic.gov.au/stop/27618/?utm_source=open_data_click_stop&utm_medium=open_data_stop_click&utm_campaign=open_data_click","","","0","Level 0",""
"27645","27645","Horsham Racecourse & Recreation Reserve/Baillie St","-36.71169405","142.18999220","https://transport.vic.gov.au/stop/27618/?utm_source=open_data_click_stop&utm_medium=open_data_stop_click&utm_campaign=open_data_click","","","0","Level 0",""
"27646","27646","Horsham College/High St","-36.71123815","142.18651963","https://transport.vic.gov.au/stop/33292/?utm_source=open_data_click_stop&utm_medium=open_data_stop_click&utm_campaign=open_data_click","","","0","Level 0",""
"27647","27647","Federation University Melbourne/Baillie St","-36.71185049","142.18540754","https://transport.vic.gov.au/stop/33517/?utm_source=open_data_click_stop&utm_medium=open_data_stop_click&utm_campaign=open_data_click","","","0","Level 0",""
"27648","27648","Horsham College/Baillie St","-36.71172073","142.18553869","https://transport.vic.gov.au/stop/33543/?utm_source=open_data_click_stop&utm_medium=open_data_stop_click&utm_campaign=open_data_click","","","0","Level 0",""
"27649","27649","Horsham West & Haven Primary School - West Campus/Hillary St","-36.71648825","142.18029621","https://transport.vic.gov.au/stop/33579/?utm_source=open_data_click_stop&utm_medium=open_data_stop_click&utm_campaign=open_data_click","","","0","Level 0",""
"27650","27650","Hillary St/Natimuk Rd","-36.71995969","142.18284193","https://transport.vic.gov.au/stop/33580/?utm_source=open_data_click_stop&utm_medium=open_data_stop_click&utm_campaign=open_data_click","","","0","Level 0",""
"27651","27651","Philip St/Churchill Rd","-36.71871742","142.18463122","https://transport.vic.gov.au/stop/21365/?utm_source=open_data_click_stop&utm_medium=open_data_stop_click&utm_campaign=open_data_click","","","0","Level 0",""
"27652","27652","Elizabeth St/Churchill Rd","-36.71617640","142.18415258","https://transport.vic.gov.au/stop/33581/?utm_source=open_data_click_stop&utm_medium=open_data_stop_click&utm_campaign=open_data_click","","","0","Level 0",""
"27653","27653","Dougherty St/Churchill Rd","-36.71343930","142.18283611","https://transport.vic.gov.au/stop/33582/?utm_source=open_data_click_stop&utm_medium=open_data_stop_click&utm_campaign=open_data_click","","","0","Level 0",""
"27654","27654","Ritchie Ct/Baillie St","-36.71231332","142.18016610","https://transport.vic.gov.au/stop/33583/?utm_source=open_data_click_stop&utm_medium=open_data_stop_click&utm_campaign=open_data_click","","","0","Level 0",""
"27655","27655","Bennett Rd/Natimuk Rd","-36.71869228","142.18623247","https://transport.vic.gov.au/stop/33584/?utm_source=open_data_click_stop&utm_medium=open_data_stop_click&utm_campaign=open_data_click","","","0","Level 0",""
"27656","27656","Shopping Square/Wilson St","-36.71656153","142.19365917","https://transport.vic.gov.au/stop/33585/?utm_source=open_data_click_stop&utm_medium=open_data_stop_click&utm_campaign=open_data_click","","","0","Level 0",""
"27657","27657","Wavell St/Kalkee Rd","-36.70282566","142.20073504","https://transport.vic.gov.au/stop/21182/?utm_source=open_data_click_stop&utm_medium=open_data_stop_click&utm_campaign=open_data_click","","","0","Level 0",""
"27658","27658","Dudley W.Cornell Park/Kalkee Rd","-36.70319490","142.20095808","https://transport.vic.gov.au/stop/33586/?utm_source=open_data_click_stop&utm_medium=open_data_stop_click&utm_campaign=open_data_click","","","0","Level 0",""
"27659","27659","Motavu Dr/Kalkee Rd","-36.69925405","142.20171809","https://transport.vic.gov.au/stop/21183/?utm_source=open_data_click_stop&utm_medium=open_data_stop_click&utm_campaign=open_data_click","","","0","Level 0",""
"27660","27660","Horsham Primary School - Rasmussen Campus/Rasmussen Rd","-36.69688988","142.20360998","https://transport.vic.gov.au/stop/33587/?utm_source=open_data_click_stop&utm_medium=open_data_stop_click&utm_campaign=open_data_click","","","0","Level 0",""
"27661","27661","Horsham Primary School - Rasmussen Campus/Rasmussen Rd","-36.69700036","142.20344654","https://transport.vic.gov.au/stop/33587/?utm_source=open_data_click_stop&utm_medium=open_data_stop_click&utm_campaign=open_data_click","","","0","Level 0",""
"27662","27662","Horsham Primary School - Rasmussen Campus/Albert St","-36.69807769","142.20559380","https://transport.vic.gov.au/stop/33588/?utm_source=open_data_click_stop&utm_medium=open_data_stop_click&utm_campaign=open_data_click","","","0","Level 0",""
"27663","27663","Watts St/Albert St","-36.70132913","142.20493285","https://transport.vic.gov.au/stop/33589/?utm_source=open_data_click_stop&utm_medium=open_data_stop_click&utm_campaign=open_data_click","","","0","Level 0",""
"27664","27664","Palm Ave/Edith St","-36.70432205","142.21215067","https://transport.vic.gov.au/stop/33590/?utm_source=open_data_click_stop&utm_medium=open_data_stop_click&utm_campaign=open_data_click","","","0","Level 0",""
"27665","27665","Palm Ave/Edith St","-36.70445949","142.21220923","https://transport.vic.gov.au/stop/33590/?utm_source=open_data_click_stop&utm_medium=open_data_stop_click&utm_campaign=open_data_click","","","0","Level 0",""
"27666","27666","Knowles St/Pryors Rd","-36.70431321","142.21684874","https://transport.vic.gov.au/stop/21265/?utm_source=open_data_click_stop&utm_medium=open_data_stop_click&utm_campaign=open_data_click","","","0","Level 0",""
"27667","27667","Knowles St/Pryors Rd","-36.70443852","142.21660608","https://transport.vic.gov.au/stop/21265/?utm_source=open_data_click_stop&utm_medium=open_data_stop_click&utm_campaign=open_data_click","","","0","Level 0",""
"27668","27668","Royal Ct/Knowles St","-36.70599086","142.21758339","https://transport.vic.gov.au/stop/21261/?utm_source=open_data_click_stop&utm_medium=open_data_stop_click&utm_campaign=open_data_click","","","0","Level 0",""
"27669","27669","Webster St/Lawrence St","-36.70759167","142.21551540","https://transport.vic.gov.au/stop/33591/?utm_source=open_data_click_stop&utm_medium=open_data_stop_click&utm_campaign=open_data_click","","","0","Level 0",""
"2767","2767","Austin St/Warncoort-Birregurra Rd","-38.33619006","143.78343580","https://transport.vic.gov.au/stop/4151/?utm_source=open_data_click_stop&utm_medium=open_data_stop_click&utm_campaign=open_data_click","","","0","Level 0",""
"27670","27670","Trinity Dr/Culliver St","-36.70870916","142.21419321","https://transport.vic.gov.au/stop/33592/?utm_source=open_data_click_stop&utm_medium=open_data_stop_click&utm_campaign=open_data_click","","","0","Level 0",""
"27671","27671","Sunnyside Horsham Bowling Club/Olga Ave","-36.70992723","142.21246206","https://transport.vic.gov.au/stop/33593/?utm_source=open_data_click_stop&utm_medium=open_data_stop_click&utm_campaign=open_data_click","","","0","Level 0",""
"27672","27672","Wimmera Base Hospital/Baillie St","-36.71162306","142.20917989","https://transport.vic.gov.au/stop/33594/?utm_source=open_data_click_stop&utm_medium=open_data_stop_click&utm_campaign=open_data_click","","","0","Level 0",""
"27673","27673","Burgess St/Oconnor St","-36.70966016","142.18780393","https://transport.vic.gov.au/stop/21414/?utm_source=open_data_click_stop&utm_medium=open_data_stop_click&utm_campaign=open_data_click","","","0","Level 0",""
"27674","27674","James St/Oconnor St","-36.70907897","142.18968580","https://transport.vic.gov.au/stop/21415/?utm_source=open_data_click_stop&utm_medium=open_data_stop_click&utm_campaign=open_data_click","","","0","Level 0",""
"27675","27675","Stewart St/Hazel St","-36.70652137","142.19324576","https://transport.vic.gov.au/stop/33597/?utm_source=open_data_click_stop&utm_medium=open_data_stop_click&utm_campaign=open_data_click","","","0","Level 0",""
"27677","27677","Wawunna Rd/Wavell St","-36.70266540","142.19587987","https://transport.vic.gov.au/stop/33599/?utm_source=open_data_click_stop&utm_medium=open_data_stop_click&utm_campaign=open_data_click","","","0","Level 0",""
"27690","27690","Stawell Gift Hall of Fame/Main St","-37.05821100","142.77296603","https://transport.vic.gov.au/stop/18264/?utm_source=open_data_click_stop&utm_medium=open_data_stop_click&utm_campaign=open_data_click","","","0","Level 0",""
"27691","27691","Frayne St/Barnes St","-37.05657879","142.77215762","https://transport.vic.gov.au/stop/18325/?utm_source=open_data_click_stop&utm_medium=open_data_stop_click&utm_campaign=open_data_click","","","0","Level 0",""
"27692","27692","Stawell Cemetery/Barnes St","-37.05562816","142.76723170","https://transport.vic.gov.au/stop/19412/?utm_source=open_data_click_stop&utm_medium=open_data_stop_click&utm_campaign=open_data_click","","","0","Level 0",""
"27693","27693","Agnes St/Mary St","-37.05346554","142.76821739","https://transport.vic.gov.au/stop/19873/?utm_source=open_data_click_stop&utm_medium=open_data_stop_click&utm_campaign=open_data_click","","","0","Level 0",""
"27694","27694","Rose St/Bennett St","-37.05318832","142.77079516","https://transport.vic.gov.au/stop/29517/?utm_source=open_data_click_stop&utm_medium=open_data_stop_click&utm_campaign=open_data_click","","","0","Level 0",""
"27695","27695","Franklin St/Lilian St","-37.05091031","142.77082066","https://transport.vic.gov.au/stop/29518/?utm_source=open_data_click_stop&utm_medium=open_data_stop_click&utm_campaign=open_data_click","","","0","Level 0",""
"27696","27696","Gertrude St/White St","-37.04835135","142.77004141","https://transport.vic.gov.au/stop/20139/?utm_source=open_data_click_stop&utm_medium=open_data_stop_click&utm_campaign=open_data_click","","","0","Level 0",""
"27697","27697","Franklin St/Ligar St","-37.05027675","142.77224938","https://transport.vic.gov.au/stop/20141/?utm_source=open_data_click_stop&utm_medium=open_data_stop_click&utm_campaign=open_data_click","","","0","Level 0",""
"27698","27698","Lamont St/Ligar St","-37.05264120","142.77414088","https://transport.vic.gov.au/stop/20147/?utm_source=open_data_click_stop&utm_medium=open_data_stop_click&utm_campaign=open_data_click","","","0","Level 0",""
"27699","27699","Houston St/Ligar St","-37.05390263","142.77516094","https://transport.vic.gov.au/stop/20182/?utm_source=open_data_click_stop&utm_medium=open_data_stop_click&utm_campaign=open_data_click","","","0","Level 0",""
"27700","27700","Mayes St/Houston St","-37.05298896","142.77732449","https://transport.vic.gov.au/stop/29523/?utm_source=open_data_click_stop&utm_medium=open_data_stop_click&utm_campaign=open_data_click","","","0","Level 0",""
"27701","27701","Newington Rd/Houston St","-37.05196078","142.77905606","https://transport.vic.gov.au/stop/20184/?utm_source=open_data_click_stop&utm_medium=open_data_stop_click&utm_campaign=open_data_click","","","0","Level 0",""
"27702","27702","Walker St/Dalton St","-37.04972368","142.77795524","https://transport.vic.gov.au/stop/23149/?utm_source=open_data_click_stop&utm_medium=open_data_stop_click&utm_campaign=open_data_click","","","0","Level 0",""
"27703","27703","Smale St/Walker St","-37.04834706","142.77951501","https://transport.vic.gov.au/stop/24166/?utm_source=open_data_click_stop&utm_medium=open_data_stop_click&utm_campaign=open_data_click","","","0","Level 0",""
"27704","27704","Walker St/Darlington Rd","-37.04732443","142.78140345","https://transport.vic.gov.au/stop/24217/?utm_source=open_data_click_stop&utm_medium=open_data_stop_click&utm_campaign=open_data_click","","","0","Level 0",""
"27705","27705","Sumner St/Woods St","-37.04512051","142.78173914","https://transport.vic.gov.au/stop/24228/?utm_source=open_data_click_stop&utm_medium=open_data_stop_click&utm_campaign=open_data_click","","","0","Level 0",""
"27706","27706","Short St/Moonlight St","-37.04707748","142.78357474","https://transport.vic.gov.au/stop/27559/?utm_source=open_data_click_stop&utm_medium=open_data_stop_click&utm_campaign=open_data_click","","","0","Level 0",""
"27707","27707","Byrne St/Moonlight St","-37.05005865","142.78609541","https://transport.vic.gov.au/stop/27928/?utm_source=open_data_click_stop&utm_medium=open_data_stop_click&utm_campaign=open_data_click","","","0","Level 0",""
"27708","27708","Gordon St/Main St","-37.05157691","142.78674180","https://transport.vic.gov.au/stop/28674/?utm_source=open_data_click_stop&utm_medium=open_data_stop_click&utm_campaign=open_data_click","","","0","Level 0",""
"27709","27709","Fisher St/Main St","-37.05363088","142.78447025","https://transport.vic.gov.au/stop/28926/?utm_source=open_data_click_stop&utm_medium=open_data_stop_click&utm_campaign=open_data_click","","","0","Level 0",""
"27710","27710","Upper Clemes St/Fisher St","-37.05596779","142.78635250","https://transport.vic.gov.au/stop/29067/?utm_source=open_data_click_stop&utm_medium=open_data_stop_click&utm_campaign=open_data_click","","","0","Level 0",""
"27711","27711","Stawell Health & Community Centre/Patrick St ","-37.05585959","142.78381852","https://transport.vic.gov.au/stop/29107/?utm_source=open_data_click_stop&utm_medium=open_data_stop_click&utm_campaign=open_data_click","","","0","Level 0",""
"27712","27712","Sloane St/St George St","-37.05907834","142.77960519","https://transport.vic.gov.au/stop/29108/?utm_source=open_data_click_stop&utm_medium=open_data_stop_click&utm_campaign=open_data_click","","","0","Level 0",""
"27713","27713","Stawell Bowling Club/Napier St","-37.06068424","142.77689727","https://transport.vic.gov.au/stop/29122/?utm_source=open_data_click_stop&utm_medium=open_data_stop_click&utm_campaign=open_data_click","","","0","Level 0",""
"27714","27714","Shirreff St/Doyle St","-37.06151992","142.77406344","https://transport.vic.gov.au/stop/29528/?utm_source=open_data_click_stop&utm_medium=open_data_stop_click&utm_campaign=open_data_click","","","0","Level 0",""
"27715","27715","Robinson St/Shirreff St","-37.06084171","142.77171834","https://transport.vic.gov.au/stop/29529/?utm_source=open_data_click_stop&utm_medium=open_data_stop_click&utm_campaign=open_data_click","","","0","Level 0",""
"27716","27716","Stone St/Seaby St","-37.05986633","142.76887281","https://transport.vic.gov.au/stop/29493/?utm_source=open_data_click_stop&utm_medium=open_data_stop_click&utm_campaign=open_data_click","","","0","Level 0",""
"27717","27717","Griffiths St/Smith St","-37.06041866","142.76542530","https://transport.vic.gov.au/stop/29534/?utm_source=open_data_click_stop&utm_medium=open_data_stop_click&utm_campaign=open_data_click","","","0","Level 0",""
"27718","27718","Austin St/Darcy St","-37.06027844","142.76175782","https://transport.vic.gov.au/stop/32497/?utm_source=open_data_click_stop&utm_medium=open_data_stop_click&utm_campaign=open_data_click","","","0","Level 0",""
"27719","27719","Western Hwy/Playford St","-37.06052235","142.75850727","https://transport.vic.gov.au/stop/33167/?utm_source=open_data_click_stop&utm_medium=open_data_stop_click&utm_campaign=open_data_click","","","0","Level 0",""
"27720","27720","Stawell Motel/Longfield St","-37.06231970","142.76065497","https://transport.vic.gov.au/stop/33576/?utm_source=open_data_click_stop&utm_medium=open_data_stop_click&utm_campaign=open_data_click","","","0","Level 0",""
"27721","27721","Stawell Historical Society Inc/Longfield St","-37.06334937","142.76325017","https://transport.vic.gov.au/stop/33636/?utm_source=open_data_click_stop&utm_medium=open_data_stop_click&utm_campaign=open_data_click","","","0","Level 0",""
"27722","27722","Stawell Grampians Gate Caravan Park/Seaby St","-37.06612910","142.76390459","https://transport.vic.gov.au/stop/33637/?utm_source=open_data_click_stop&utm_medium=open_data_stop_click&utm_campaign=open_data_click","","","0","Level 0",""
"27723","27723","Western Hwy/Foster St","-37.06594454","142.76680362","https://transport.vic.gov.au/stop/33638/?utm_source=open_data_click_stop&utm_medium=open_data_stop_click&utm_campaign=open_data_click","","","0","Level 0",""
"27724","27724","Little Cooper Lane/Seaby St","-37.06374981","142.76512741","https://transport.vic.gov.au/stop/33641/?utm_source=open_data_click_stop&utm_medium=open_data_stop_click&utm_campaign=open_data_click","","","0","Level 0",""
"27725","27725","Foster St/Cooper St","-37.06390281","142.76789516","https://transport.vic.gov.au/stop/33642/?utm_source=open_data_click_stop&utm_medium=open_data_stop_click&utm_campaign=open_data_click","","","0","Level 0",""
"27726","27726","Stawell West Primary School/Cooper St","-37.06540333","142.77182439","https://transport.vic.gov.au/stop/33643/?utm_source=open_data_click_stop&utm_medium=open_data_stop_click&utm_campaign=open_data_click","","","0","Level 0",""
"27727","27727","Warren St/Sloane St","-37.06609098","142.77468615","https://transport.vic.gov.au/stop/33644/?utm_source=open_data_click_stop&utm_medium=open_data_stop_click&utm_campaign=open_data_click","","","0","Level 0",""
"27728","27728","Freeland Ave/Kingston Ave","-37.06525966","142.77713774","https://transport.vic.gov.au/stop/33645/?utm_source=open_data_click_stop&utm_medium=open_data_stop_click&utm_campaign=open_data_click","","","0","Level 0",""
"27729","27729","Simpson St/Dawson St","-37.06328732","142.77765191","https://transport.vic.gov.au/stop/33646/?utm_source=open_data_click_stop&utm_medium=open_data_stop_click&utm_campaign=open_data_click","","","0","Level 0",""
"27730","27730","Colquhoun St/Wakeham St","-37.06377946","142.78109774","https://transport.vic.gov.au/stop/33647/?utm_source=open_data_click_stop&utm_medium=open_data_stop_click&utm_campaign=open_data_click","","","0","Level 0",""
"27731","27731","Colquhoun St/Napier St","-37.06377647","142.78379550","https://transport.vic.gov.au/stop/29504/?utm_source=open_data_click_stop&utm_medium=open_data_stop_click&utm_campaign=open_data_click","","","0","Level 0",""
"27732","27732","The Plantation Retirement Village/Napier St","-37.06605416","142.78857000","https://transport.vic.gov.au/stop/33648/?utm_source=open_data_click_stop&utm_medium=open_data_stop_click&utm_campaign=open_data_click","","","0","Level 0",""
"27733","27733","London Rd/Napier St","-37.06747598","142.79157117","https://transport.vic.gov.au/stop/33649/?utm_source=open_data_click_stop&utm_medium=open_data_stop_click&utm_campaign=open_data_click","","","0","Level 0",""
"27734","27734","Eventide Homes Retirement Village/Oregan St","-37.06492395","142.79275775","https://transport.vic.gov.au/stop/33650/?utm_source=open_data_click_stop&utm_medium=open_data_stop_click&utm_campaign=open_data_click","","","0","Level 0",""
"27735","27735","Eventide Homes Retirement Village/Williams St","-37.06362386","142.79216652","https://transport.vic.gov.au/stop/33651/?utm_source=open_data_click_stop&utm_medium=open_data_stop_click&utm_campaign=open_data_click","","","0","Level 0",""
"27736","27736","Eventide Homes Retirement Village/Hastings St","-37.06300765","142.79079563","https://transport.vic.gov.au/stop/33652/?utm_source=open_data_click_stop&utm_medium=open_data_stop_click&utm_campaign=open_data_click","","","0","Level 0",""
"27737","27737","Stawell Secondary College/Patrick St","-37.06124918","142.78820668","https://transport.vic.gov.au/stop/26641/?utm_source=open_data_click_stop&utm_medium=open_data_stop_click&utm_campaign=open_data_click","","","0","Level 0",""
"27738","27738","Grant St/Patrick St","-37.05963045","142.78701503","https://transport.vic.gov.au/stop/33653/?utm_source=open_data_click_stop&utm_medium=open_data_stop_click&utm_campaign=open_data_click","","","0","Level 0",""
"27740","27740","Irwin Rd/Enterprise Dr","-36.54228608","146.01379591","https://transport.vic.gov.au/stop/24065/?utm_source=open_data_click_stop&utm_medium=open_data_stop_click&utm_campaign=open_data_click","","","0","Level 0",""
"27741","27741","Benalla Tourist Park/Sydney Rd","-36.54351711","146.00896512","https://transport.vic.gov.au/stop/23453/?utm_source=open_data_click_stop&utm_medium=open_data_stop_click&utm_campaign=open_data_click","","","0","Level 0",""
"27742","27742","Evans St/Sydney Rd","-36.54468090","146.00690575","https://transport.vic.gov.au/stop/23467/?utm_source=open_data_click_stop&utm_medium=open_data_stop_click&utm_campaign=open_data_click","","","0","Level 0",""
"27743","27743","Australian Christian College - Hume/Sydney Rd","-36.54776958","145.99895599","https://transport.vic.gov.au/stop/24188/?utm_source=open_data_click_stop&utm_medium=open_data_stop_click&utm_campaign=open_data_click","","","0","Level 0",""
"27751","27751","Desailly St/Foster St","-38.11144350","147.06466714","https://transport.vic.gov.au/stop/12121/?utm_source=open_data_click_stop&utm_medium=open_data_stop_click&utm_campaign=open_data_click","","","0","Level 0",""
"27752","27752","Desailly St/Foster St","-38.11170578","147.06299052","https://transport.vic.gov.au/stop/12121/?utm_source=open_data_click_stop&utm_medium=open_data_stop_click&utm_campaign=open_data_click","","","0","Level 0",""
"27753","27753","Punt Lane/McMillan St","-38.11357836","147.06674519","https://transport.vic.gov.au/stop/12123/?utm_source=open_data_click_stop&utm_medium=open_data_stop_click&utm_campaign=open_data_click","","","0","Level 0",""
"27754","27754","Punt Lane/McMillan St","-38.11367733","147.06703047","https://transport.vic.gov.au/stop/12123/?utm_source=open_data_click_stop&utm_medium=open_data_stop_click&utm_campaign=open_data_click","","","0","Level 0",""
"27755","27755","Marley St/Foster St","-38.11124207","147.07015379","https://transport.vic.gov.au/stop/12130/?utm_source=open_data_click_stop&utm_medium=open_data_stop_click&utm_campaign=open_data_click","","","0","Level 0",""
"27757","27757","Millicent Ct/Cobains Rd","-38.08785486","147.08268667","https://transport.vic.gov.au/stop/12244/?utm_source=open_data_click_stop&utm_medium=open_data_stop_click&utm_campaign=open_data_click","","","0","Level 0",""
"27758","27758","Cobains Rd/Evelyn Dr","-38.08776888","147.07656291","https://transport.vic.gov.au/stop/12556/?utm_source=open_data_click_stop&utm_medium=open_data_stop_click&utm_campaign=open_data_click","","","0","Level 0",""
"27759","27759","Dawson St/Dryden Pl","-38.09275159","147.07860947","https://transport.vic.gov.au/stop/12245/?utm_source=open_data_click_stop&utm_medium=open_data_stop_click&utm_campaign=open_data_click","","","0","Level 0",""
"27760","27760","Macalister St/York St","-38.10977399","147.06847557","https://transport.vic.gov.au/stop/12263/?utm_source=open_data_click_stop&utm_medium=open_data_stop_click&utm_campaign=open_data_click","","","0","Level 0",""
"27761","27761","Macalister St/York St","-38.10994540","147.06819056","https://transport.vic.gov.au/stop/12263/?utm_source=open_data_click_stop&utm_medium=open_data_stop_click&utm_campaign=open_data_click","","","0","Level 0",""
"27762","27762","MacArthur St/York St","-38.10605184","147.06827819","https://transport.vic.gov.au/stop/12266/?utm_source=open_data_click_stop&utm_medium=open_data_stop_click&utm_campaign=open_data_click","","","0","Level 0",""
"27763","27763","Fitzroy St/York St","-38.10140156","147.06777202","https://transport.vic.gov.au/stop/12268/?utm_source=open_data_click_stop&utm_medium=open_data_stop_click&utm_campaign=open_data_click","","","0","Level 0",""
"27764","27764","Fitzroy St/York St","-38.10130226","147.06805707","https://transport.vic.gov.au/stop/12268/?utm_source=open_data_click_stop&utm_medium=open_data_stop_click&utm_campaign=open_data_click","","","0","Level 0",""
"27765","27765","Maffra-Sale Rd/York St","-38.09554294","147.06835965","https://transport.vic.gov.au/stop/12307/?utm_source=open_data_click_stop&utm_medium=open_data_stop_click&utm_campaign=open_data_click","","","0","Level 0",""
"27766","27766","Maffra-Sale Rd/York St","-38.09560591","147.06855359","https://transport.vic.gov.au/stop/12307/?utm_source=open_data_click_stop&utm_medium=open_data_stop_click&utm_campaign=open_data_click","","","0","Level 0",""
"27767","27767","York St/Maffra-Sale Rd","-38.09210101","147.06672565","https://transport.vic.gov.au/stop/12355/?utm_source=open_data_click_stop&utm_medium=open_data_stop_click&utm_campaign=open_data_click","","","0","Level 0",""
"27768","27768","Rhodes Dr/Maffra-Sale Rd","-38.09192067","147.06686234","https://transport.vic.gov.au/stop/12429/?utm_source=open_data_click_stop&utm_medium=open_data_stop_click&utm_campaign=open_data_click","","","0","Level 0",""
"27769","27769","Maffra-Sale Rd/Glebe Dr","-38.08746327","147.05959430","https://transport.vic.gov.au/stop/12431/?utm_source=open_data_click_stop&utm_medium=open_data_stop_click&utm_campaign=open_data_click","","","0","Level 0",""
"27770","27770","Gooch Ct/Glebe Dr","-38.08884355","147.05691556","https://transport.vic.gov.au/stop/12437/?utm_source=open_data_click_stop&utm_medium=open_data_stop_click&utm_campaign=open_data_click","","","0","Level 0",""
"27771","27771","Authors Way/Woondella Bvd","-38.08675300","147.05604729","https://transport.vic.gov.au/stop/12443/?utm_source=open_data_click_stop&utm_medium=open_data_stop_click&utm_campaign=open_data_click","","","0","Level 0",""
"27772","27772","Maffra-Sale Rd/Woondella Bvd","-38.08487855","147.05561254","https://transport.vic.gov.au/stop/12444/?utm_source=open_data_click_stop&utm_medium=open_data_stop_click&utm_campaign=open_data_click","","","0","Level 0",""
"27773","27773","Cantwell Dr/Princes Hwy","-38.08103071","147.07119674","https://transport.vic.gov.au/stop/12445/?utm_source=open_data_click_stop&utm_medium=open_data_stop_click&utm_campaign=open_data_click","","","0","Level 0",""
"27774","27774","Ashton St/Cantwell Dr","-38.07971611","147.06906325","https://transport.vic.gov.au/stop/12454/?utm_source=open_data_click_stop&utm_medium=open_data_stop_click&utm_campaign=open_data_click","","","0","Level 0",""
"27775","27775","Surkitt Bvd/Morgan St","-38.07874377","147.06728362","https://transport.vic.gov.au/stop/12469/?utm_source=open_data_click_stop&utm_medium=open_data_stop_click&utm_campaign=open_data_click","","","0","Level 0",""
"27776","27776","Ashton St/Cantwell Dr","-38.07965213","147.07056829","https://transport.vic.gov.au/stop/12454/?utm_source=open_data_click_stop&utm_medium=open_data_stop_click&utm_campaign=open_data_click","","","0","Level 0",""
"27970","27970","Longford Kindergarten/Longford-Loch Sport Rd","-38.16253978","147.08734841","https://transport.vic.gov.au/stop/19314/?utm_source=open_data_click_stop&utm_medium=open_data_stop_click&utm_campaign=open_data_click","","","0","Level 0",""
"27971","27971","Longford Kindergarten/Longford-Loch Sport Rd","-38.16272891","147.08751986","https://transport.vic.gov.au/stop/19314/?utm_source=open_data_click_stop&utm_medium=open_data_stop_click&utm_campaign=open_data_click","","","0","Level 0",""
"27972","27972","Charvel Rd/Longford-Loch Sport Rd ","-38.16539565","147.10006874","https://transport.vic.gov.au/stop/25724/?utm_source=open_data_click_stop&utm_medium=open_data_stop_click&utm_campaign=open_data_click","","","0","Level 0",""
"27973","27973","Charlies St/Government Rd","-38.05735186","147.56870423","https://transport.vic.gov.au/stop/19323/?utm_source=open_data_click_stop&utm_medium=open_data_stop_click&utm_campaign=open_data_click","","","0","Level 0",""
"27974","27974","Charlies St/Government Rd","-38.05747787","147.56873940","https://transport.vic.gov.au/stop/19323/?utm_source=open_data_click_stop&utm_medium=open_data_stop_click&utm_campaign=open_data_click","","","0","Level 0",""
"27975","27975","First St/Lake St","-38.05067099","147.57660805","https://transport.vic.gov.au/stop/19334/?utm_source=open_data_click_stop&utm_medium=open_data_stop_click&utm_campaign=open_data_click","","","0","Level 0",""
"27976","27976","First St/Lake St","-38.05050670","147.57702847","https://transport.vic.gov.au/stop/19334/?utm_source=open_data_click_stop&utm_medium=open_data_stop_click&utm_campaign=open_data_click","","","0","Level 0",""
"27977","27977","Cliff St/Lake St","-38.04681029","147.58093141","https://transport.vic.gov.au/stop/19352/?utm_source=open_data_click_stop&utm_medium=open_data_stop_click&utm_campaign=open_data_click","","","0","Level 0",""
"27978","27978","Cliff St/Lake St","-38.04707215","147.58083091","https://transport.vic.gov.au/stop/19352/?utm_source=open_data_click_stop&utm_medium=open_data_stop_click&utm_campaign=open_data_click","","","0","Level 0",""
"27979","27979","Simon Ct/National Park Rd","-38.04541001","147.58704040","https://transport.vic.gov.au/stop/19362/?utm_source=open_data_click_stop&utm_medium=open_data_stop_click&utm_campaign=open_data_click","","","0","Level 0",""
"27980","27980","Simon Ct/National Park Rd","-38.04549078","147.58710943","https://transport.vic.gov.au/stop/19362/?utm_source=open_data_click_stop&utm_medium=open_data_stop_click&utm_campaign=open_data_click","","","0","Level 0",""
"27981","27981","Bream Rd/National Park Rd","-38.04128636","147.59160011","https://transport.vic.gov.au/stop/33405/?utm_source=open_data_click_stop&utm_medium=open_data_stop_click&utm_campaign=open_data_click","","","0","Level 0",""
"27982","27982","Geofrey Ave/Horder St ","-38.02797692","147.61226441","https://transport.vic.gov.au/stop/19365/?utm_source=open_data_click_stop&utm_medium=open_data_stop_click&utm_campaign=open_data_click","","","0","Level 0",""
"27983","27983","Goodlett Ave/National Park Rd","-38.03359414","147.60310408","https://transport.vic.gov.au/stop/19392/?utm_source=open_data_click_stop&utm_medium=open_data_stop_click&utm_campaign=open_data_click","","","0","Level 0",""
"28164","28164","Southeast Bvd/Healesville-Koo Wee Rup Rd ","-38.09745286","145.48882572","https://transport.vic.gov.au/stop/29351/?utm_source=open_data_click_stop&utm_medium=open_data_stop_click&utm_campaign=open_data_click","","","0","",""
"28351","28351","Skyline Rd/Twenty First St","-37.23493704","145.89709541","https://transport.vic.gov.au/stop/32555/?utm_source=open_data_click_stop&utm_medium=open_data_stop_click&utm_campaign=open_data_click","","","0","Level 0",""
"28352","28352","Darlingford Nursing Home/High St","-37.22978769","145.91339146","https://transport.vic.gov.au/stop/32574/?utm_source=open_data_click_stop&utm_medium=open_data_stop_click&utm_campaign=open_data_click","","","0","Level 0",""
"28730","28730","Dumbarton Way/Mulgutherie Way","-37.49049745","144.57823261","https://transport.vic.gov.au/stop/31129/?utm_source=open_data_click_stop&utm_medium=open_data_stop_click&utm_campaign=open_data_click","","","0","Level 0",""
"28731","28731","Argyle St/Station Rd ","-37.46200146","144.59713897","https://transport.vic.gov.au/stop/34174/?utm_source=open_data_click_stop&utm_medium=open_data_stop_click&utm_campaign=open_data_click","","","0","",""
"28732","28732","Argyle St/Station Rd ","-37.46228178","144.59718652","https://transport.vic.gov.au/stop/34174/?utm_source=open_data_click_stop&utm_medium=open_data_stop_click&utm_campaign=open_data_click","","","0","",""
"28734","28734","Cherry Lane/Swinburne Ave","-37.47629609","144.58619925","https://transport.vic.gov.au/stop/31128/?utm_source=open_data_click_stop&utm_medium=open_data_stop_click&utm_campaign=open_data_click","","","0","Level 0",""
"28736","28736","Station Rd/Cherry Lane ","-37.47727855","144.59150474","https://transport.vic.gov.au/stop/34175/?utm_source=open_data_click_stop&utm_medium=open_data_stop_click&utm_campaign=open_data_click","","","0","",""
"28738","28738","Hamilton St/Goode St","-37.48770190","144.58649932","https://transport.vic.gov.au/stop/31110/?utm_source=open_data_click_stop&utm_medium=open_data_stop_click&utm_campaign=open_data_click","","","0","Level 0",""
"28739","28739","Howey St/Penny Green Dr","-37.49207447","144.58483174","https://transport.vic.gov.au/stop/31111/?utm_source=open_data_click_stop&utm_medium=open_data_stop_click&utm_campaign=open_data_click","","","0","Level 0",""
"28741","28741","Dalton St/Melton Rd ","-37.49570076","144.58545006","https://transport.vic.gov.au/stop/34176/?utm_source=open_data_click_stop&utm_medium=open_data_stop_click&utm_campaign=open_data_click","","","0","",""
"28744","28744","Fowler Ct/Willowbank Rd","-37.49969699","144.58785494","https://transport.vic.gov.au/stop/31113/?utm_source=open_data_click_stop&utm_medium=open_data_stop_click&utm_campaign=open_data_click","","","0","Level 0",""
"28746","28746","Glenton Ct/Mt Gisborne Rd ","-37.50290162","144.58856620","https://transport.vic.gov.au/stop/34177/?utm_source=open_data_click_stop&utm_medium=open_data_stop_click&utm_campaign=open_data_click","","","0","",""
"28747","28747","Belcher Way/Willowbank Rd ","-37.49998215","144.59034546","https://transport.vic.gov.au/stop/34178/?utm_source=open_data_click_stop&utm_medium=open_data_stop_click&utm_campaign=open_data_click","","","0","",""
"28748","28748","Belcher Way/Willowbank Rd ","-37.49995997","144.59102483","https://transport.vic.gov.au/stop/34178/?utm_source=open_data_click_stop&utm_medium=open_data_stop_click&utm_campaign=open_data_click","","","0","",""
"28750","28750","Willowbank Rd/Brady Rd ","-37.50096692","144.59710041","https://transport.vic.gov.au/stop/34179/?utm_source=open_data_click_stop&utm_medium=open_data_stop_click&utm_campaign=open_data_click","","","0","",""
"28751","28751","Parkview St/Brady Rd ","-37.50488999","144.59636378","https://transport.vic.gov.au/stop/34180/?utm_source=open_data_click_stop&utm_medium=open_data_stop_click&utm_campaign=open_data_click","","","0","",""
"28752","28752","Cherry Ballart Rd/Brady Rd ","-37.50495556","144.59648611","https://transport.vic.gov.au/stop/34181/?utm_source=open_data_click_stop&utm_medium=open_data_stop_click&utm_campaign=open_data_click","","","0","",""
"28753","28753","Gordon Bvd/Brooking Rd ","-37.51053234","144.60217837","https://transport.vic.gov.au/stop/34182/?utm_source=open_data_click_stop&utm_medium=open_data_stop_click&utm_campaign=open_data_click","","","0","",""
"28754","28754","Gordon Bvd/Brooking Rd ","-37.51041090","144.60196732","https://transport.vic.gov.au/stop/34182/?utm_source=open_data_click_stop&utm_medium=open_data_stop_click&utm_campaign=open_data_click","","","0","",""
"28755","28755","Brooking Rd/McGeorge Rd ","-37.51065901","144.60931252","https://transport.vic.gov.au/stop/34183/?utm_source=open_data_click_stop&utm_medium=open_data_stop_click&utm_campaign=open_data_click","","","0","",""
"28756","28756","Brooking Rd/McGeorge Rd ","-37.51091414","144.60945144","https://transport.vic.gov.au/stop/34183/?utm_source=open_data_click_stop&utm_medium=open_data_stop_click&utm_campaign=open_data_click","","","0","",""
"28757","28757","Rothschild Rd/McGeorge Rd ","-37.50594539","144.60884078","https://transport.vic.gov.au/stop/34184/?utm_source=open_data_click_stop&utm_medium=open_data_stop_click&utm_campaign=open_data_click","","","0","",""
"28758","28758","Rothschild Rd/McGeorge Rd ","-37.50593127","144.60903353","https://transport.vic.gov.au/stop/34184/?utm_source=open_data_click_stop&utm_medium=open_data_stop_click&utm_campaign=open_data_click","","","0","",""
"28759","28759","Tasman Rd/Rothschild Rd ","-37.50488150","144.60481385","https://transport.vic.gov.au/stop/34185/?utm_source=open_data_click_stop&utm_medium=open_data_stop_click&utm_campaign=open_data_click","","","0","",""
"28760","28760","Town Pl/Rothschild Rd ","-37.50478518","144.60495266","https://transport.vic.gov.au/stop/34186/?utm_source=open_data_click_stop&utm_medium=open_data_stop_click&utm_campaign=open_data_click","","","0","",""
"28761","28761","Willowbank Rd/Childe Harold Rd ","-37.50213755","144.60459615","https://transport.vic.gov.au/stop/34187/?utm_source=open_data_click_stop&utm_medium=open_data_stop_click&utm_campaign=open_data_click","","","0","",""
"28762","28762","Willowbank Rd/Childe Harold Rd ","-37.50217633","144.60473065","https://transport.vic.gov.au/stop/34187/?utm_source=open_data_click_stop&utm_medium=open_data_stop_click&utm_campaign=open_data_click","","","0","",""
"28763","28763","Thompson Cl/Fersfield Rd ","-37.49798285","144.60502302","https://transport.vic.gov.au/stop/34188/?utm_source=open_data_click_stop&utm_medium=open_data_stop_click&utm_campaign=open_data_click","","","0","",""
"28764","28764","Carnegie Ct/Fersfield Rd ","-37.49753628","144.60122564","https://transport.vic.gov.au/stop/34189/?utm_source=open_data_click_stop&utm_medium=open_data_stop_click&utm_campaign=open_data_click","","","0","",""
"28765","28765","Keily Rd/Fersfield Rd","-37.49712884","144.59758540","https://transport.vic.gov.au/stop/31116/?utm_source=open_data_click_stop&utm_medium=open_data_stop_click&utm_campaign=open_data_click","","","0","Level 0",""
"28766","28766","Howey St/Keily Rd","-37.49336785","144.59831668","https://transport.vic.gov.au/stop/31117/?utm_source=open_data_click_stop&utm_medium=open_data_stop_click&utm_campaign=open_data_click","","","0","Level 0",""
"28767","28767","Worcester Rd/Howey St ","-37.49260818","144.59464272","https://transport.vic.gov.au/stop/34190/?utm_source=open_data_click_stop&utm_medium=open_data_stop_click&utm_campaign=open_data_click","","","0","",""
"28768","28768","Worcester Rd/Howey St ","-37.49250541","144.59490615","https://transport.vic.gov.au/stop/34190/?utm_source=open_data_click_stop&utm_medium=open_data_stop_click&utm_campaign=open_data_click","","","0","",""
"28769","28769","Howey St/Aitken St ","-37.49115704","144.59065178","https://transport.vic.gov.au/stop/34191/?utm_source=open_data_click_stop&utm_medium=open_data_stop_click&utm_campaign=open_data_click","","","0","",""
"28770","28770","Fisher St/Aitken St ","-37.49110001","144.59050659","https://transport.vic.gov.au/stop/34192/?utm_source=open_data_click_stop&utm_medium=open_data_stop_click&utm_campaign=open_data_click","","","0","",""
"28771","28771","Aitken St/Hamilton St","-37.48813658","144.59322554","https://transport.vic.gov.au/stop/31120/?utm_source=open_data_click_stop&utm_medium=open_data_stop_click&utm_campaign=open_data_click","","","0","Level 0",""
"28772","28772","Jacksons Creek Way/Kilmore Rd ","-37.48418525","144.60054457","https://transport.vic.gov.au/stop/34193/?utm_source=open_data_click_stop&utm_medium=open_data_stop_click&utm_campaign=open_data_click","","","0","",""
"28773","28773","Kumbari Ct/Peavey Rd","-37.47921555","144.60788401","https://transport.vic.gov.au/stop/31126/?utm_source=open_data_click_stop&utm_medium=open_data_stop_click&utm_campaign=open_data_click","","","0","Level 0",""
